NO.,KODE PUSK.,NAMA PUSKESMAS,ALAMAT,Kota_Kabupaten,PONED,JENIS PUSKESMAS,full_address,location,latitude,longitude
1,P3201010101,NANGGUNG,"Jl. Ace Tabrani Km 5, Kec. Nanggung",Bogor,1.0,1,"Jl. Ace Tabrani Km 5, Kec. Nanggung, Bogor, Indonesia","Jl. Raya Ace Tabrani No.km 5, Parakan Muncang, Kec. Nanggung, Kabupaten Bogor, Jawa Barat 16650, Indonesia",-6.5784693,106.5482501
2,P3201010202,CURUG BITUNG,"Kp. Cibeber Nanggung, Kec. Nanggung",Bogor,,2,"Kp. Cibeber Nanggung, Kec. Nanggung, Bogor, Indonesia","Jl. Raya Cibeber Nanggung, Curug Bitung, Kec. Nanggung, Kabupaten Bogor, Jawa Barat 16650, Indonesia",-6.6257024,106.5413221
3,P3201020101,LEUWILIANG,"Jl. Raya Moch. Noor No. 3, Kec. Leuwiliang",Bogor,,1,"Jl. Raya Moch. Noor No. 3, Kec. Leuwiliang, Bogor, Indonesia","Leuwiliang, Bogor Regency, West Java, Indonesia",-6.5741514,106.6320005
4,P3201020202,PURASEDA,"Kp. Gudang, Kec. Leuwiliang",Bogor,,2,"Kp. Gudang, Kec. Leuwiliang, Bogor, Indonesia","CJJM+GVC Kolam Pemancingan BTS, Karyasari, Kec. Leuwiliang, Kabupaten Bogor, Jawa Barat 16640, Indonesia",-6.5686767,106.6346562
5,P3201020203,SADENG PASAR,"Ds. Sadeng Pasar, Kec. Leuwiliang",Bogor,,2,"Ds. Sadeng Pasar, Kec. Leuwiliang, Bogor, Indonesia","Jl. Raya Sadeng Ps., Kec. Leuwisadeng, Kabupaten Bogor, Jawa Barat 16640, Indonesia",-6.568917,106.5863278
6,P3201021201,LEUWISADENG,"Kp. Joglo, Kec. Luewisadeng",Bogor,,2,"Kp. Joglo, Kec. Luewisadeng, Bogor, Indonesia","Jl. Joglo Raya No.25, RT.13/RW.02, Joglo, Kec. Kembangan, Kota Jakarta Barat, Daerah Khusus Ibukota Jakarta 11630, Indonesia",-6.2177919,106.7571974
7,P3201030201,PAMIJAHAN,"Kp. Pasar Jum' at Rt. 02/05, Kec. Pamijahan",Bogor,,2,"Kp. Pasar Jum' at Rt. 02/05, Kec. Pamijahan, Bogor, Indonesia","8MH7+3HF, Jl. Raya Gn. Salak Endah Jl. Raya Ps. Jumat No.Kp, RT.004/RW.006, Gn. Sari, Kec. Pamijahan, Kabupaten Bogor, Jawa Barat 16810, Indonesia",-6.672197100000001,106.6640547
8,P3201030202,CIBENING,"Ds. Cibening, Kec. Pamijahan",Bogor,,2,"Ds. Cibening, Kec. Pamijahan, Bogor, Indonesia","Cibening, Pamijahan, Bogor Regency, West Java, Indonesia",-6.6298036,106.67924
9,P3201030203,CIASMARA,"Jl. Raya KH Abd. Hamid km 15, Kec. Pamijahan",Bogor,,2,"Jl. Raya KH Abd. Hamid km 15, Kec. Pamijahan, Bogor, Indonesia","Jl. KH. Abdul Hamid No.Km. 15, Ciasmara, Kec. Pamijahan, Kabupaten Bogor, Jawa Barat 16810, Indonesia",-6.6848068,106.6487031
10,P3201040101,CIBUNGBULANG,"Jl. Raya Bungbulang Km 4, Kec. Cibungbulang",Bogor,1.0,1,"Jl. Raya Bungbulang Km 4, Kec. Cibungbulang, Bogor, Indonesia","Cibungbulang, Bogor Regency, West Java, Indonesia",-6.5749662,106.6606641
11,P3201040202,CIJUJUNG,"Jl. Raya Galuga Km 19, Kec. Cibungbulang",Bogor,,2,"Jl. Raya Galuga Km 19, Kec. Cibungbulang, Bogor, Indonesia","Jl. Raya Galuga, Kec. Cibungbulang, Kabupaten Bogor, Jawa Barat 16630, Indonesia",-6.575929,106.6482624
12,P3201040203,SITU UDIK,"Jl. Raya KH Abd. Hamid Km 4, Kec. Cibungbulang",Bogor,,2,"Jl. Raya KH Abd. Hamid Km 4, Kec. Cibungbulang, Bogor, Indonesia","Jl. KH. Abdul Hamid No.KM. 4, Situ Udik, Kec. Cibungbulang, Kabupaten Bogor, Jawa Barat 16630, Indonesia",-6.6157102,106.6570077
13,P3201050201,CIAMPEA,"Jl. Letnan Sukarno No. 28, Kec. Ciampea",Bogor,,2,"Jl. Letnan Sukarno No. 28, Kec. Ciampea, Bogor, Indonesia","Ciampea, Bogor Regency, West Java, Indonesia",-6.5549198,106.696144
14,P3201050202,PASIR,"Kp. Pasir Oray, Kec. Ciampea",Bogor,,2,"Kp. Pasir Oray, Kec. Ciampea, Bogor, Indonesia","Kp pasir oray No.008, RT.002, Cinangka, Kec. Ciampea, Kabupaten Bogor, Jawa Barat 16620, Indonesia",-6.591831,106.7018735
15,P3201050203,CIAMPEA UDIK,"Kp. Laladon, Kec. Ciampea",Bogor,,2,"Kp. Laladon, Kec. Ciampea, Bogor, Indonesia","kp. laladon, CQ74+H9R, RT.05/RW.12, Sukaresmi, Kec. Ciomas, Kabupaten Bogor, Jawa Barat 16610, Indonesia",-6.586017399999999,106.7559004
16,P3201050204,CIHIDEUNG UDIK,"Ds. Cihideung Udik, Kec. Ciampea",Bogor,,2,"Ds. Cihideung Udik, Kec. Ciampea, Bogor, Indonesia","Cihideung Udik, Ciampea, Bogor Regency, West Java, Indonesia",-6.5834237,106.7190411
17,P3201051201,TENJOLAYA,"JL. R. Abd. Fatah Tapos II, Kec. Tenjolaya",Bogor,1.0,2,"JL. R. Abd. Fatah Tapos II, Kec. Tenjolaya, Bogor, Indonesia","Jl. Abdul Fatah, Tapos II, Kec. Tenjolaya, Kabupaten Bogor, Jawa Barat, Indonesia",-6.6328067,106.6941444
18,P3201060101,DARMAGA,"Jl. Raya Ciherang, Kec. Darmaga",Bogor,,1,"Jl. Raya Ciherang, Kec. Darmaga, Bogor, Indonesia","Jl. Raya Ciherang, Kec. Dramaga, Kabupaten Bogor, Jawa Barat, Indonesia",-6.5817553,106.7462706
19,P3201060202,CANGKURAWOK,"Kp Cangkurawok Rt 2/3, Kec. Darmaga",Bogor,,2,"Kp Cangkurawok Rt 2/3, Kec. Darmaga, Bogor, Indonesia","Jl. Cangkurawok No.02/04, Babakan, Kec. Dramaga, Kabupaten Bogor, Jawa Barat 16680, Indonesia",-6.5521707,106.7324825
20,P3201060203,KAMPUNG MANGGIS,"Jl. Sirnasari, Kec. Darmaga",Bogor,,2,"Jl. Sirnasari, Kec. Darmaga, Bogor, Indonesia","Jl. Sirnasari Raya, Sindangbarang, Kec. Bogor Bar., Kota Bogor, Jawa Barat 16117, Indonesia",-6.5788476,106.7622961
21,P3201060204,PURWASARI,"Jl. Situ Lincal RT 01/07 No. 10, Kec. Darmaga",Bogor,,2,"Jl. Situ Lincal RT 01/07 No. 10, Kec. Darmaga, Bogor, Indonesia","Jl. Situ Uncal No.1 10, Petir, Kec. Dramaga, Kabupaten Bogor, Jawa Barat 16680, Indonesia",-6.615505,106.7273847
22,P3201070101,CIOMAS,"Kp. Sukajaya Rt 1/2, Kec. Ciomas",Bogor,1.0,1,"Kp. Sukajaya Rt 1/2, Kec. Ciomas, Bogor, Indonesia","Cicadas, Ciampea, Bogor Regency, West Java 16620, Indonesia",-6.585306399999999,106.6891051
23,P3201070202,CIAPUS,"Jl. Raya Sukamakmur, Kec. Ciomas",Bogor,,2,"Jl. Raya Sukamakmur, Kec. Ciomas, Bogor, Indonesia","Jl. Raya Suka Makmur, Sukamakmur, Kec. Ciomas, Kabupaten Bogor, Jawa Barat 16610, Indonesia",-6.6139005,106.7507608
24,P3201070203,KOTA BATU,"Jl. Raya Ciapus Komp Badak Putih, Kec. Ciomas",Bogor,,2,"Jl. Raya Ciapus Komp Badak Putih, Kec. Ciomas, Bogor, Indonesia","Jl. Raya Ciapus, Kec. Ciomas, Kabupaten Bogor, Jawa Barat, Indonesia",-6.6206993,106.7828166
25,P3201070204,LALADON,"Komplek Laladon Permai, Kec. Ciomas",Bogor,,2,"Komplek Laladon Permai, Kec. Ciomas, Bogor, Indonesia","Komplek Laladon Permai, RT.07/RW.03, Laladon, Kec. Ciomas, Kota Bogor, Jawa Barat 16610, Indonesia",-6.5817273,106.758694
26,P3201071201,TAMANSARI,"Ds. Sukajaya, Kec. Tamansari",Bogor,,2,"Ds. Sukajaya, Kec. Tamansari, Bogor, Indonesia","Sukajaya, Tamansari, Bogor Regency, West Java, Indonesia",-6.6382693,106.7323097
27,P3201071202,SIRNA GALIH,"Jl. Kapten Yusuf No.10, Kec. Tamansari",Bogor,,2,"Jl. Kapten Yusuf No.10, Kec. Tamansari, Bogor, Indonesia","Jl. Kapten Yusuf Gg. Purnama TK. Purnama No.10, Sukamantri, Kec. Tamansari, Kabupaten Bogor, Jawa Barat 16610, Indonesia",-6.639074799999999,106.7780574
28,P3201071203,SUKARESMI,"Jl. Cipadung Ds Sukaresmi, Kec. Tamansari",Bogor,,2,"Jl. Cipadung Ds Sukaresmi, Kec. Tamansari, Bogor, Indonesia","Jl. Raya Cipadung, Sukaresmi, Kec. Tamansari, Kabupaten Bogor, Jawa Barat, Indonesia",-6.6377482,106.7497372
29,P3201080201,CIJERUK,"Ds. Tanjungsari Rt 9/4 No. 424, Kec. Cijeruk",Bogor,1.0,2,"Ds. Tanjungsari Rt 9/4 No. 424, Kec. Cijeruk, Bogor, Indonesia","Jl. Tanjungsari, Tajur Halang, Kec. Cijeruk, Kabupaten Bogor, Jawa Barat 16740, Indonesia",-6.6752696,106.7870524
30,P3201080202,CIBURAYUT,"Ds. Ciburayut No. 4, Kec. Cijeruk",Bogor,,2,"Ds. Ciburayut No. 4, Kec. Cijeruk, Bogor, Indonesia","Ciburayut, Cigombong, Bogor Regency, West Java, Indonesia",-6.7198397,106.7927658
31,P3201080203,SUKAHARJA,Kec. Cijeruk,Bogor,,2,"Kec. Cijeruk, Bogor, Indonesia","Cijeruk, Bogor Regency, West Java, Indonesia",-6.6928652,106.7934247
32,P3201081101,CIGOMBONG,"Jl. R. Abd. Fatah Tapos II, Kec. Cigombong",Bogor,1.0,1,"Jl. R. Abd. Fatah Tapos II, Kec. Cigombong, Bogor, Indonesia","Tapos II, Tenjolaya, Bogor Regency, West Java, Indonesia",-6.6345451,106.6910322
33,P3201090201,CARINGIN,"Jl. Kol. Bustomi Ds. Caringin, Kec. Caringin",Bogor,,2,"Jl. Kol. Bustomi Ds. Caringin, Kec. Caringin, Bogor, Indonesia","Jl. Kolonel Bustomi, Kec. Caringin, Kabupaten Bogor, Jawa Barat, Indonesia",-6.7046463,106.81942
34,P3201090202,CINAGARA,"Ds. Cinagara Rt2/5, Kec. Caringin",Bogor,,2,"Ds. Cinagara Rt2/5, Kec. Caringin, Bogor, Indonesia","Cinagara, Caringin, Bogor Regency, West Java, Indonesia",-6.752176,106.8620891
35,P3201090203,CIDERUM,"Kp. Cigereteg Rt 01/1, Kec. Caringin",Bogor,,2,"Kp. Cigereteg Rt 01/1, Kec. Caringin, Bogor, Indonesia","RT.01/RW.01, Jawa Barat, Indonesia",-6.679204899999999,106.8318497
36,P3201100201,CIAWI,"Jl. Raya Sukabumi Gg. Ayu, Kec. Ciawi",Bogor,,2,"Jl. Raya Sukabumi Gg. Ayu, Kec. Ciawi, Bogor, Indonesia","Gg. Ayu, Kec. Ciawi, Kabupaten Bogor, Jawa Barat, Indonesia",-6.6686229,106.847726
37,P3201100202,BANJARSARI,"Ds. Banjarsari Rt 05/011, Kec. Ciawi",Bogor,,2,"Ds. Banjarsari Rt 05/011, Kec. Ciawi, Bogor, Indonesia","Banjar Sari, Ciawi, Bogor Regency, West Java, Indonesia",-6.683679,106.8694651
38,P3201100203,CITAPEN,"Jl. Raya Tapos Ds Cipaten, Kec. Ciawi",Bogor,,2,"Jl. Raya Tapos Ds Cipaten, Kec. Ciawi, Bogor, Indonesia","Jl. Raya Tapos, Cibedug, Kec. Ciawi, Kabupaten Bogor, Jawa Barat 16720, Indonesia",-6.7036146,106.8869674
39,P3201110201,CISARUA,"Jl. Raya Puncak Km 63, Kec. Cisarua",Bogor,,2,"Jl. Raya Puncak Km 63, Kec. Cisarua, Bogor, Indonesia","Jl. Raya Puncak, Kec. Cisarua, Kabupaten Bogor, Jawa Barat, Indonesia",-6.6840347,106.9512553
40,P3201110202,CIBULAN,"Jl. Raya Puncak Km 81, Kec. Cisarua",Bogor,,2,"Jl. Raya Puncak Km 81, Kec. Cisarua, Bogor, Indonesia","Jl. Raya Puncak No.Km.81, Tugu Sel., Kec. Cisarua, Kabupaten Bogor, Jawa Barat 16750, Indonesia",-6.6806103,106.9322405
41,P3201120201,MEGAMENDUNG,"Ds. Cipayung Girang No. 1, Kec.  Megamendung",Bogor,,2,"Ds. Cipayung Girang No. 1, Kec.  Megamendung, Bogor, Indonesia","Jl. Cipayung Girang No.1, Cipayung Datar, Kec. Megamendung, Kabupaten Bogor, Jawa Barat 16770, Indonesia",-6.6401084,106.8716837
42,P3201120202,SUKAMANAH,"Kp Pasir  Muncang Rt 1/1, Kec. Megamendung",Bogor,,2,"Kp Pasir  Muncang Rt 1/1, Kec. Megamendung, Bogor, Indonesia","Jl. Cikopo Sel. Jl. Raya Pasir Muncang No.Kp, RT.01/RW.02, Sukamanah, Kec. Megamendung, Kabupaten Bogor, Jawa Barat 16770, Indonesia",-6.6841675,106.8981823
43,P3201130201,CILEBUT,Kec. Sukaraja,Bogor,,2,"Kec. Sukaraja, Bogor, Indonesia","Sukaraja, Bogor Regency, West Java, Indonesia",-6.5885498,106.839355
44,P3201130102,CIMANDALA,"Jl. Raya Jakarta - Bogor Km 51, Kec. Sukaraja",Bogor,,1,"Jl. Raya Jakarta - Bogor Km 51, Kec. Sukaraja, Bogor, Indonesia","Jl. Raya Jakarta-Bogor No.KM.51, Ciluar, Kec. Sukaraja, Kabupaten Bogor, Jawa Barat 16156, Indonesia",-6.515313099999999,106.838281
45,P3201130103,SUKARAJA,"Jl. Raya Cikeas, Kec. Sukaraja",Bogor,1.0,1,"Jl. Raya Cikeas, Kec. Sukaraja, Bogor, Indonesia","Jl. Cikeas Raya, Cikeas, Kec. Sukaraja, Kabupaten Bogor, Jawa Barat 16710, Indonesia",-6.586931,106.8454207
46,P3201140201,BABAKAN MADANG,"Jl. Raya Babakan Madang, Kec. Babakan Madang",Bogor,,2,"Jl. Raya Babakan Madang, Kec. Babakan Madang, Bogor, Indonesia","Jl. Raya Babakan Madang, Kec. Babakan Madang, Kabupaten Bogor, Jawa Barat 16810, Indonesia",-6.5483469,106.8529094
47,P3201140202,CIJAYANTI,"Jl. Cijayanti No. 6, Kec. Babakan Madang",Bogor,,2,"Jl. Cijayanti No. 6, Kec. Babakan Madang, Bogor, Indonesia","Jl. Raya Cijayanti No.6, Cijayanti, Kec. Babakan Madang, Kabupaten Bogor, Jawa Barat 16810, Indonesia",-6.5948213,106.8646685
48,P3201140203,SENTUL,"Jl. Pintu III Sirkuit Sentul, Kec. Babakan Madang",Bogor,,2,"Jl. Pintu III Sirkuit Sentul, Kec. Babakan Madang, Bogor, Indonesia","Jl. Pintu III, Sentul, Kec. Babakan Madang, Kabupaten Bogor, Jawa Barat 16810, Indonesia",-6.5258492,106.8580755
49,P3201150101,SUKAMAKMUR,"Ds. Sukamakmur, Kec. Sukamakmur",Bogor,1.0,1,"Ds. Sukamakmur, Kec. Sukamakmur, Bogor, Indonesia","Sirnajaya, Sukamakmur, Bogor Regency, West Java 16830, Indonesia",-6.616081599999999,107.0007987
50,P3201150202,SUKADAMAI,"Kp. Waru Ds. Sukadamai, Kec. Sukamakmur",Bogor,,2,"Kp. Waru Ds. Sukadamai, Kec. Sukamakmur, Bogor, Indonesia","Sukadamai, Sukamakmur, Bogor Regency, West Java, Indonesia",-6.5548655,107.062802
51,P3201160201,CARIU,"Jl. Brigjen Darsono No. 13, Kec. Cariu",Bogor,1.0,2,"Jl. Brigjen Darsono No. 13, Kec. Cariu, Bogor, Indonesia","F4RJ+44C, Jl. Brigjen. Darsono No.13, Cariu, Kec. Cariu, Kabupaten Bogor, Jawa Barat 16840, Indonesia",-6.509605,107.1302441
52,P3201160202,KARYAMEKAR,"Ds. Karyamekar, Kec. Cariu",Bogor,,2,"Ds. Karyamekar, Kec. Cariu, Bogor, Indonesia","Karya Mekar, Cariu, Bogor Regency, West Java, Indonesia",-6.5507564,107.1071
53,P3201161101,TANJUNGSARI,"Jl. Abd Halim No. 60, Kec. Tanjungsari",Bogor,1.0,1,"Jl. Abd Halim No. 60, Kec. Tanjungsari, Bogor, Indonesia","Jl. H. Abdul Halim No.60, RT.02/RW.04, Cibadak, Kec. Tanah Sereal, Kota Bogor, Jawa Barat 16166, Indonesia",-6.5486328,106.7723511
54,P3201170101,JONGGOL,"Jl. Pojok Salak Rt 9/11, Kec. Jonggol",Bogor,,1,"Jl. Pojok Salak Rt 9/11, Kec. Jonggol, Bogor, Indonesia","Jl. Pojok Salak, Jonggol, Kec. Jonggol, Kabupaten Bogor, Jawa Barat 16830, Indonesia",-6.462941,107.0672322
55,P3201170202,BALEKAMBANG,"Kop. Bondol Ds. Balekambang, Kec. Jonggol",Bogor,,2,"Kop. Bondol Ds. Balekambang, Kec. Jonggol, Bogor, Indonesia","Balekambang, Jonggol, Bogor Regency, West Java, Indonesia",-6.5132126,107.0805202
56,P3201170203,SUKANEGARA,"Kp. Dayeuh Ds. Sukanegara, Kec. Jonggol",Bogor,,2,"Kp. Dayeuh Ds. Sukanegara, Kec. Jonggol, Bogor, Indonesia","Jl. Kp. Dayeuh, Sukanegara, Kec. Jonggol, Kabupaten Bogor, Jawa Barat 16830, Indonesia",-6.5398176,107.0301679
57,P3201180201,CILEUNGSI,"Ds. Cileungsi, Kec. Cileungsi",Bogor,1.0,2,"Ds. Cileungsi, Kec. Cileungsi, Bogor, Indonesia","Cileungsi, Bogor Regency, West Java, Indonesia",-6.402271799999999,106.9704941
58,P3201180202,GANDOANG,"Jl. Raya Cileungsi Jonggol, Kec. Cileungsi",Bogor,,2,"Jl. Raya Cileungsi Jonggol, Kec. Cileungsi, Bogor, Indonesia","Jl. Raya Cileungsi - Jonggol, Kec. Cileungsi, Kabupaten Bogor, Jawa Barat, Indonesia",-6.4118694,107.0100285
59,P3201180203,PASIR ANGIN,"Jl. Raya Setu Rt 1/1, Kec. Cileungsi",Bogor,,2,"Jl. Raya Setu Rt 1/1, Kec. Cileungsi, Bogor, Indonesia","Jl. Raya Setu No.1, Cileungsi, Kec. Cileungsi, Kabupaten Bogor, Jawa Barat 16820, Indonesia",-6.3949048,106.9743685
61,P3201180204,BOJONG,"Ds. Bojong, Kec. Cileungsi",Bogor,,2,"Ds. Bojong, Kec. Cileungsi, Bogor, Indonesia","JXGP+FH4, Pasir Angin, Cileungsi, Bogor Regency, West Java 16820, Indonesia",-6.3738681,106.9864686
60,P3201181201,KELAPA NUNGGAL,"Ds. Kembang Kunung, Kec. Kelapa Nunggal",Bogor,1.0,2,"Ds. Kembang Kunung, Kec. Kelapa Nunggal, Bogor, Indonesia","Kembang Kuning, Klapanunggal, Bogor Regency, West Java, Indonesia",-6.4514269,106.9388118
62,P3201190101,GUNUNG PUTRI,"Jl. Wanaherang, Kec. Gunung Putri",Bogor,,1,"Jl. Wanaherang, Kec. Gunung Putri, Bogor, Indonesia","Jl. Wanaherang Raya, Wanaherang, Kec. Gn. Putri, Kabupaten Bogor, Jawa Barat 16965, Indonesia",-6.4168954,106.9374964
63,P3201190202,CIANGSANA,"Kp. Cikeas Hilir Rt 5/3, Kec. Gunung Putri",Bogor,,2,"Kp. Cikeas Hilir Rt 5/3, Kec. Gunung Putri, Bogor, Indonesia","3, Bojong Kulur, Kec. Gn. Putri, Kabupaten Bogor, Jawa Barat 16969, Indonesia",-6.3205668,106.9615875
64,P3201190203,KRANGGAN,"Jl. Raya Kranggan No. 148, Kec. Gunung Putri",Bogor,,2,"Jl. Raya Kranggan No. 148, Kec. Gunung Putri, Bogor, Indonesia","Jl. Raya Kranggan No.148, RT.004/RW.008, Jatiranggon, Kec. Jatisampurna, Kota Bks, Jawa Barat 17432, Indonesia",-6.339585599999999,106.922975
65,P3201190204,BOJONG NANGKA,"Jl. Golf River Side, Kec. Gunung Putri",Bogor,,2,"Jl. Golf River Side, Kec. Gunung Putri, Bogor, Indonesia","Jl. Bukit Golf Riverside, Bojong Nangka, Kec. Gn. Putri, Kabupaten Bogor, Jawa Barat 16965, Indonesia",-6.4218015,106.9019911
66,P3201200101,CITEUREUP,"Jl. Alternatif Puspanegara, Kec. Citeureup",Bogor,,1,"Jl. Alternatif Puspanegara, Kec. Citeureup, Bogor, Indonesia","Jl. Kartika Raya, Cibinong, Kec. Citeureup, Kabupaten Bogor, Jawa Barat, Indonesia",-6.4954195,106.8596094
67,P3201200202,LEUWINUTUG,"Jl. Setu, Kec. Citeureup",Bogor,,2,"Jl. Setu, Kec. Citeureup, Bogor, Indonesia","Jl. Kartika Raya, Cibinong, Kec. Citeureup, Kabupaten Bogor, Jawa Barat, Indonesia",-6.4954195,106.8596094
68,P3201200203,TAJUR,"Jl. Raya Tajur, Kec. Citeureup",Bogor,,2,"Jl. Raya Tajur, Kec. Citeureup, Bogor, Indonesia","Jl. Kartika Raya, Cibinong, Kec. Citeureup, Kabupaten Bogor, Jawa Barat, Indonesia",-6.4954195,106.8596094
69,P3201210201,CIBINONG,"Jl.  Raya Bogor Km 47.5, Kec. Cibinong",Bogor,,2,"Jl.  Raya Bogor Km 47.5, Kec. Cibinong, Bogor, Indonesia","Jl. Raya Bogor, Kec. Cibinong, Kabupaten Bogor, Jawa Barat, Indonesia",-6.4709996,106.8499635
70,P3201210202,CIRIMEKAR,"Jl. Kayu Manis, Kec. Cibinong",Bogor,,2,"Jl. Kayu Manis, Kec. Cibinong, Bogor, Indonesia","Jl. Kayu Manis, Cirimekar, Kec. Cibinong, Kabupaten Bogor, Jawa Barat, Indonesia",-6.4736804,106.8536016
71,P3201210203,KARADENAN,"Ds. Karadenan, Kec. Cibinong",Bogor,,2,"Ds. Karadenan, Kec. Cibinong, Bogor, Indonesia","Karadenan, Cibinong, Bogor Regency, West Java, Indonesia",-6.5182585,106.8082216
72,P3201210204,PABUARAN INDAH,"Perum Pabuaran Indah Blok H, Kec. Cibinong",Bogor,,2,"Perum Pabuaran Indah Blok H, Kec. Cibinong, Bogor, Indonesia","Jl. Dahlia I No.1 Blok D-3, RT.14/RW.17, Pabuaran, Kec. Cibinong, Kabupaten Bogor, Jawa Barat 16916, Indonesia",-6.4437918,106.8466881
73,P3201210205,SULIWER,"Ds. Cibinong, Kec.Cibinong",Bogor,,2,"Ds. Cibinong, Kec.Cibinong, Bogor, Indonesia","Cibinong, Bogor Regency, West Java, Indonesia",-6.487495000000001,106.8496222
74,P3201220201,BOJONG GEDE,Kec. Bojong Gede,Bogor,,2,"Kec. Bojong Gede, Bogor, Indonesia","Bojonggede, Bogor Regency, West Java, Indonesia",-6.4960615,106.7947017
75,P3201220202,RAGAJAYA,"Kp. Caringin Rt 01/08, Kec. Bojong Gede",Bogor,,2,"Kp. Caringin Rt 01/08, Kec. Bojong Gede, Bogor, Indonesia","Jl. Setapak No.30, RT.3/RW.11, Ragajaya, Kecamatan Bojonggede, Kabupaten Bogor, Jawa Barat 16920, Indonesia",-6.442759,106.7750445
76,P3201220203,KEMUNING,"Jl Raya Tonjong Cimanggis, Kec. Bojong Gede",Bogor,1.0,2,"Jl Raya Tonjong Cimanggis, Kec. Bojong Gede, Bogor, Indonesia","Jl. Raya Tonjong, Cimanggis, Kecamatan Bojonggede, Kabupaten Bogor, Jawa Barat, Indonesia",-6.502131,106.7734617
77,P3201221201,TAJURHALANG,"Ds. Tajurhalang, Kec. Tajurhalang",Bogor,1.0,2,"Ds. Tajurhalang, Kec. Tajurhalang, Bogor, Indonesia","Tajur Halang, Bogor Regency, West Java, Indonesia",-6.4758182,106.7578498
78,P3201230201,KEMANG,"Ds. Kemang, Kec. Kemang",Bogor,,2,"Ds. Kemang, Kec. Kemang, Bogor, Indonesia","Kemang, Bogor Regency, West Java, Indonesia",-6.4770259,106.7301359
79,P3201230202,JAMPANG,"Ds. Jampang, Kec. Kemang",Bogor,,2,"Ds. Jampang, Kec. Kemang, Bogor, Indonesia","Jl Raya Parung Gg Palem RT 04 RW 05 Jampang Parung, Jampang, Kec. Kemang, Kabupaten Bogor, Jawa Barat 16330, Indonesia",-6.4833072,106.7320705
80,P3201231201,RANCA BUNGUR,Kec. Ranca Bungur,Bogor,,2,"Kec. Ranca Bungur, Bogor, Indonesia","Ranca Bungur, Bogor Regency, West Java, Indonesia",-6.5379916,106.7312575
81,P3201240201,PARUNG,"Ds. Parung, Kec. Parung",Bogor,1.0,2,"Ds. Parung, Kec. Parung, Bogor, Indonesia","Parung, Bogor Regency, West Java, Indonesia",-6.4222402,106.7325943
82,P3201240202,BANTAR JAYA,"Jl. Atang Sanjaya, Kec. Parung",Bogor,,2,"Jl. Atang Sanjaya, Kec. Parung, Bogor, Indonesia","Jl. Atang Senjaya, Kabupaten Bogor, Jawa Barat, Indonesia",-6.538972,106.7369369
83,P3201241201,CISEENG,"Jl. Nusa Ciseeng, Kec. Ciseeng",Bogor,,2,"Jl. Nusa Ciseeng, Kec. Ciseeng, Bogor, Indonesia","Ciseeng, Bogor Regency, West Java, Indonesia",-6.4492597,106.6779359
84,P3201241202,CIBEUTEUNG UDIK,"Jl. Raya Cibeuteung Udik, Kec. Ciseeng",Bogor,,2,"Jl. Raya Cibeuteung Udik, Kec. Ciseeng, Bogor, Indonesia","Jl. Raya Cibeuteung, Kec. Ciseeng, Kabupaten Bogor, Jawa Barat, Indonesia",-6.4906164,106.6894366
85,P3201250201,GUNUNG SINDUR,"Ds. Gunung Sindur, Kec. Gunung Sindur",Bogor,,2,"Ds. Gunung Sindur, Kec. Gunung Sindur, Bogor, Indonesia","Gunung Sindur, Bogor Regency, West Java, Indonesia",-6.3847562,106.6804186
86,P3201250202,COGREG,"Jl. Raya Ciseeng, Kec. Gunung Sindur",Bogor,,2,"Jl. Raya Ciseeng, Kec. Gunung Sindur, Bogor, Indonesia","Jl. Raya Ciseeng, Kabupaten Bogor, Jawa Barat, Indonesia",-6.4368613,106.6951991
87,P3201260101,RUMPIN,"Kp. Waru Sawah Rt 17/04, Kec. Rumpin",Bogor,1.0,1,"Kp. Waru Sawah Rt 17/04, Kec. Rumpin, Bogor, Indonesia","HP87+C3V, Warujaya, Parung, Bogor Regency, West Java 16330, Indonesia",-6.4338847,106.7126772
88,P3201260202,CICANGKAL,"Jl.  Raya Cicangkal, Kec. Rumpin",Bogor,,2,"Jl.  Raya Cicangkal, Kec. Rumpin, Bogor, Indonesia","Jl. Raya Cicangkal, Kec. Rumpin, Kabupaten Bogor, Jawa Barat 16350, Indonesia",-6.407839,106.6374435
89,P3201260203,GOBANG,"Jl. Raya Gobang, Kec. Rumpin",Bogor,,2,"Jl. Raya Gobang, Kec. Rumpin, Bogor, Indonesia","Jl. Raya Gobang, Gobang, Kec. Rumpin, Kabupaten Bogor, Jawa Barat 16350, Indonesia",-6.5082425,106.6519869
90,P3201270101,CIGUDEG,"Ds. Cigudeg, Kec. Cigudeg",Bogor,1.0,1,"Ds. Cigudeg, Kec. Cigudeg, Bogor, Indonesia","Jl. Raya Cigudeg No.17, Cigudeg, Kec. Cigudeg, Kabupaten Bogor, Jawa Barat 16660, Indonesia",-6.5522735,106.5371411
91,P3201270202,LEBAK WANGI,"Ds. Lebakwangi, Kec. Cigudeg",Bogor,,2,"Ds. Lebakwangi, Kec. Cigudeg, Bogor, Indonesia","Jl. Lb. Wangi, Kec. Cigudeg, Kabupaten Bogor, Jawa Barat, Indonesia",-6.4301094,106.526721
92,P3201270203,BUNAR,"Jl. Raya Jasinga Km 39, Kec. Cigudeg",Bogor,,2,"Jl. Raya Jasinga Km 39, Kec. Cigudeg, Bogor, Indonesia","Jl. Raya Jasinga, Kec. Cigudeg, Kabupaten Bogor, Jawa Barat, Indonesia",-6.5183124,106.4981786
93,P3201271101,SUKAJAYA,"Kp. Kompa Rt. 01/01 Ds. Cipay, Kec. Sukajaya",Bogor,,1,"Kp. Kompa Rt. 01/01 Ds. Cipay, Kec. Sukajaya, Bogor, Indonesia","Sukajaya, Bogor Regency, West Java, Indonesia",-6.5895984,106.4899491
94,P3201271202,KIARA PANDAK,"Kp. Cipetat Rt 01/8, Kec. Sukajaya",Bogor,,2,"Kp. Cipetat Rt 01/8, Kec. Sukajaya, Bogor, Indonesia","Sukajaya, Bogor Regency, West Java, Indonesia",-6.5895984,106.4899491
95,P3201280101,JASINGA,"Jl. Letnan Sayuti, Kec. Jasinga",Bogor,1.0,1,"Jl. Letnan Sayuti, Kec. Jasinga, Bogor, Indonesia","Jl. Letnan Sayuti, Kec. Jasinga, Kabupaten Bogor, Jawa Barat 16670, Indonesia",-6.4621839,106.4599783
96,P3201280202,CURUG,"Kp. Barangbang, Kec. Jasinga",Bogor,,2,"Kp. Barangbang, Kec. Jasinga, Bogor, Indonesia","Unnamed Road, Wirajaya, FCX6+V4G, kampung barangbang hilir, Kec. Jasinga, Kabupaten Bogor, Jawa Barat 16670, Indonesia",-6.500314599999999,106.4103428
97,P3201280203,BAGOANG,"Kp. Tarisi Rt 04/01, Kec. Jasinga",Bogor,,2,"Kp. Tarisi Rt 04/01, Kec. Jasinga, Bogor, Indonesia","Bagoang, Jasinga, Bogor Regency, West Java 16670, Indonesia",-6.422545,106.4562429
98,P3201290101,TENJO,"Jl. Raya Tenjo Jasinga Rt 3/2, Kec. Tenjo",Bogor,,1,"Jl. Raya Tenjo Jasinga Rt 3/2, Kec. Tenjo, Bogor, Indonesia","Jl. Raya Tenjo No.3, Singabangsa, Kec. Tenjo, Kabupaten Bogor, Jawa Barat 16370, Indonesia",-6.3145573,106.4781618
99,P3201290202,PASAR REBO,"Kp. Pasar Rebo Rt 04/02, Kec. Tenjo",Bogor,,2,"Kp. Pasar Rebo Rt 04/02, Kec. Tenjo, Bogor, Indonesia","Jl. Raya Jasinga Tenjo, RT.006/RW.002, Bojong, Kec. Tenjo, Kabupaten Bogor, Jawa Barat, Indonesia",-6.3781836,106.4382025
100,P3201300101,PARUNG PANJANG,"Jl. Moch Toha No. 3, Kec. Parung Panjang",Bogor,,1,"Jl. Moch Toha No. 3, Kec. Parung Panjang, Bogor, Indonesia","Jl. Mohamad Toha No.3, RW.4, Parung Panjang, Kec. Parung Panjang, Kabupaten Bogor, Jawa Barat 16360, Indonesia",-6.341754,106.569853
101,P3201300202,DAGO,"Ds. Dago, Kec. Parung Panjang",Bogor,,2,"Ds. Dago, Kec. Parung Panjang, Bogor, Indonesia","Jl. Durian VII No.17, Lumpang, Kec. Parung Panjang, Kabupaten Bogor, Jawa Barat 16360, Indonesia",-6.3529336,106.5597076
1,P3202010201,CIEMAS,"Ds. Ciemas, Kec. Ciemas",Sukabumi,,2,"Ds. Ciemas, Kec. Ciemas, Sukabumi, Indonesia","RF4J+VQ6, Ciwaru, Ciemas, Sukabumi Regency, West Java 43177, Indonesia",-7.1928358,106.481884
2,P3202010202,TAMANJAYA,"Jl. Raya Tamanjaya, Kec. Ciemas",Sukabumi,1.0,2,"Jl. Raya Tamanjaya, Kec. Ciemas, Sukabumi, Indonesia","Ciemas Taman Jaya, Kec. Ciemas, Kabupaten Sukabumi, Jawa Barat 43177, Indonesia",-7.1921046,106.5153727
3,P3202020201,CIRACAP,"H. Anwari Ds. Ciracap, Kec. Ciracap",Sukabumi,1.0,2,"H. Anwari Ds. Ciracap, Kec. Ciracap, Sukabumi, Indonesia","Ciracap, Sukabumi Regency, West Java, Indonesia",-7.316853800000001,106.50538
4,P3202021201,WALURAN,"Jl. Raya Cimukek Ds. Waluran, Kec. Waluran",Sukabumi,1.0,2,"Jl. Raya Cimukek Ds. Waluran, Kec. Waluran, Sukabumi, Indonesia","Jl. Cimulek, Waluran, Kec. Waluran, Kabupaten Sukabumi, Jawa Barat 43175, Indonesia",-7.2166489,106.5899229
5,P3202030201,SURADE,"Jl. Raya Surade, Kec. Surade",Sukabumi,,2,"Jl. Raya Surade, Kec. Surade, Sukabumi, Indonesia","Jl. Surade, Kec. Surade, Kabupaten Sukabumi, Jawa Barat, Indonesia",-7.373496,106.5234155
6,P3202030202,BUNIWANGI,"Ds. Baniwangi, Kec. Surade",Sukabumi,,2,"Ds. Baniwangi, Kec. Surade, Sukabumi, Indonesia","Buniwangi, Surade, Sukabumi Regency, West Java, Indonesia",-7.380528199999999,106.543676
7,P3202031201,CIBITUNG,"Jl. Cikaso Km 6, Kec. Cibitung",Sukabumi,,2,"Jl. Cikaso Km 6, Kec. Cibitung, Sukabumi, Indonesia","JJQ9+R28, Desa Ciniti, Cibitung, Sukabumi Regency, West Java 43172, Indonesia",-7.3604748,106.617578
8,P3202040201,JAMPANG KULON,"Jl. Raya Bojonggenteng, Kec. Jampang Kulon",Sukabumi,,2,"Jl. Raya Bojonggenteng, Kec. Jampang Kulon, Sukabumi, Indonesia","Jl. Bojong Genteng, Kabupaten Sukabumi, Jawa Barat, Indonesia",-7.1471104,106.569212
9,P3202040202,CIMANGGU,"Ds. Cimanggu, Kec. Jampang Kulon",Sukabumi,1.0,2,"Ds. Cimanggu, Kec. Jampang Kulon, Sukabumi, Indonesia","Cimanggu, Sukabumi Regency, West Java, Indonesia",-7.245533500000001,106.6733441
10,P3202050201,KALIBUNDER,"Jl. Raya Kalibunder Km 14, Kec. Kali Bunder",Sukabumi,1.0,2,"Jl. Raya Kalibunder Km 14, Kec. Kali Bunder, Sukabumi, Indonesia","Kalibunder, Sukabumi Regency, West Java, Indonesia",-7.2360801,106.7175669
11,P3202060201,TEGAL BULED,"Ds. Buniasih, Kec. Tegal Buled",Sukabumi,1.0,2,"Ds. Buniasih, Kec. Tegal Buled, Sukabumi, Indonesia","Buniasih, Tegal Buleud, Sukabumi Regency, West Java, Indonesia",-7.402557799999999,106.7175669
12,P3202060202,BANGBAYANG,"Jl Buniwangi No. 1, Kec. Tegal Buled",Sukabumi,,2,"Jl Buniwangi No. 1, Kec. Tegal Buled, Sukabumi, Indonesia","Jl. Buniwangi No.1, Buniwangi, Kec. Pelabuhanratu, Kabupaten Sukabumi, Jawa Barat 43185, Indonesia",-6.949881299999999,106.5817317
13,P3202070201,CIDOLOG,"Jl. Raya Cidolog No. 40, Kec. Cidolog",Sukabumi,,2,"Jl. Raya Cidolog No. 40, Kec. Cidolog, Sukabumi, Indonesia","Jl. Cidolog, Cidolog, Kec. Cidolog, Kabupaten Sukabumi, Jawa Barat 43184, Indonesia",-7.3176333,106.8435828
14,P3202080101,SAGARANTEN,"Jl. Raya Cigadog, Kec. Sagaranten",Sukabumi,1.0,1,"Jl. Raya Cigadog, Kec. Sagaranten, Sukabumi, Indonesia","Jl. Cigadog, Kec. Nyalindung, Kabupaten Sukabumi, Jawa Barat 43196, Indonesia",-7.0152873,106.9209079
15,P3202081201,CIDADAP,"Jl. Raya Cidadap, Kec. Cidadap",Sukabumi,,2,"Jl. Raya Cidadap, Kec. Cidadap, Sukabumi, Indonesia","Jl. Cidadap, Cidadap, Kec. Cidadap, Kabupaten Sukabumi, Jawa Barat 43183, Indonesia",-7.2943194,106.9379424
16,P3202082201,CURUG KEMBAR,"Jl. Raya Cikadu Km 5, Kec. Curug Kembar",Sukabumi,1.0,2,"Jl. Raya Cikadu Km 5, Kec. Curug Kembar, Sukabumi, Indonesia","Jl. Cikadu, Curugkembar, Kec. Curugkembar, Kabupaten Sukabumi, Jawa Barat 43182, Indonesia",-7.2151673,106.938258
17,P3202090201,PABUARAN,"Jl. Raya Puncak Tugu No. 4, Kec. Pabuaran",Sukabumi,,2,"Jl. Raya Puncak Tugu No. 4, Kec. Pabuaran, Sukabumi, Indonesia","QRWM+48R, Pabuaran, Sukabumi Regency, West Java, Indonesia",-7.204636799999999,106.8332675
18,P3202100101,LENGKONG,"Jl. Raya Lengkong No.20, Kec. Lengkong",Sukabumi,1.0,1,"Jl. Raya Lengkong No.20, Kec. Lengkong, Sukabumi, Indonesia","Jl. Raya Lengkong No.20, Lengkong, Kec. Lengkong, Kabupaten Sukabumi, Jawa Barat 43174, Indonesia",-7.1268292,106.6832636
19,P3202110201,PELABUHAN RATU,"Jl. Raya Cipatuguran, Kec. Pelabuhan Ratu",Sukabumi,,2,"Jl. Raya Cipatuguran, Kec. Pelabuhan Ratu, Sukabumi, Indonesia","Jl. Raya Simpenan, Kec. Pelabuhanratu, Kabupaten Sukabumi, Jawa Barat, Indonesia",-7.0114662,106.5669302
20,P3202110202,CITARIK,"Ds. Citarik, Kec. Pelabuhan Ratu",Sukabumi,1.0,2,"Ds. Citarik, Kec. Pelabuhan Ratu, Sukabumi, Indonesia","Citarik, Palabuhanratu, Sukabumi Regency, West Java, Indonesia",-6.9918507,106.5878723
21,P3202111201,SIMPENAN,"Jl. Citamiang Ds. Cidadap, Kec. Simpenan",Sukabumi,1.0,2,"Jl. Citamiang Ds. Cidadap, Kec. Simpenan, Sukabumi, Indonesia","Cidadap, Simpenan, Sukabumi Regency, West Java, Indonesia",-7.023358399999999,106.5760857
22,P3202120201,WARUNG KIARA,"Jl. Pelabuhan Ratu Km 30, Kec. Warung Kiara",Sukabumi,1.0,2,"Jl. Pelabuhan Ratu Km 30, Kec. Warung Kiara, Sukabumi, Indonesia","Jl. Raya Pelabuhan Ratu No.Km 30, RT.01/RW.01, Warungkiara, Kec. Wr. Kiara, Kabupaten Sukabumi, Jawa Barat 43362, Indonesia",-6.9808716,106.7132159
23,P3202121201,BANTAR GADUNG,"Jl. Raya Pelabuhan, Kec. Bantar Gadung",Sukabumi,,2,"Jl. Raya Pelabuhan, Kec. Bantar Gadung, Sukabumi, Indonesia","Jl. Raya Pelabuhan, Kabupaten Sukabumi, Jawa Barat, Indonesia",-6.9713464,106.8632221
24,P3202130101,JAMPANG TENGAH,"Jl. Raya Bojonglopang Rt 07/02, Kec. Jampang Tengah",Sukabumi,1.0,1,"Jl. Raya Bojonglopang Rt 07/02, Kec. Jampang Tengah, Sukabumi, Indonesia","Jl. Raya Bojonglopang No.7, Bojong Jengkol, Kec. Jampang Tengah, Kabupaten Sukabumi, Jawa Barat 43171, Indonesia",-7.070097,106.7794556
25,P3202131201,PURABAYA,"Ds. Purabaya, Kec. Purabaya",Sukabumi,,2,"Ds. Purabaya, Kec. Purabaya, Sukabumi, Indonesia","WV2J+352, Panumbangan-Purabaya, Purabaya, Kec. Purabaya, Kabupaten Sukabumi, Jawa Barat 43187, Indonesia",-7.0998731,106.8803817
26,P3202140201,CIKEMBAR,"Jl. Palabuhan II Km 18, Kec. Cikembar",Sukabumi,1.0,2,"Jl. Palabuhan II Km 18, Kec. Cikembar, Sukabumi, Indonesia","Jl. Pelabuhan II No.KM 18, RT.004/RW.001, Cikembar, Kec. Cikembar, Kabupaten Sukabumi, Jawa Barat 43157, Indonesia",-6.9643669,106.7996896
27,P3202150201,NYALINDUNG,"Jl. Raya Nyalindung Km 28, Kec. Nyalindung",Sukabumi,,2,"Jl. Raya Nyalindung Km 28, Kec. Nyalindung, Sukabumi, Indonesia","Jl. Raya Nyalindung, Kertaangsana, Kec. Nyalindung, Kabupaten Sukabumi, Jawa Barat 43196, Indonesia",-7.0419836,106.9451676
28,P3202150202,CIJANGKAR,"Jl. Raya Sagaranten Km.11, Kec. Nyalindung",Sukabumi,,2,"Jl. Raya Sagaranten Km.11, Kec. Nyalindung, Sukabumi, Indonesia","Jl. Raya Sagaranten, Kec. Sagaranten, Kabupaten Sukabumi, Jawa Barat 43181, Indonesia",-7.2170642,106.8844643
29,P3202160201,GEGER BITUNG,"Jl. 1eteran No.7, Kec. Geger Bitung",Sukabumi,,2,"Jl. 1eteran No.7, Kec. Geger Bitung, Sukabumi, Indonesia","Gegerbitung, Sukabumi Regency, West Java, Indonesia",-6.9825085,107.0264908
30,P3202170201,SUKARAJA,"Jl. Raya Sukaraja No.1 Km.5, Kec. Sukaraja",Sukabumi,,2,"Jl. Raya Sukaraja No.1 Km.5, Kec. Sukaraja, Sukabumi, Indonesia","Jl. Raya Sukaraja No.1, Pasirhalang, Kec. Sukaraja, Kabupaten Sukabumi, Jawa Barat 43192, Indonesia",-6.9186063,106.9594718
31,P3202170202,LIMBANGAN,"Goalpara Km 4 Ds. Limbangan, Kec. Sukaraja",Sukabumi,,2,"Goalpara Km 4 Ds. Limbangan, Kec. Sukaraja, Sukabumi, Indonesia","Perumahan Tiara Regency Blok A no 99, Jl. Goalpara No.Km 4, Limbangan, Kec. Sukaraja, Kabupaten Sukabumi, Jawa Barat 43192, Indonesia",-6.889089100000001,106.9649673
32,P3202171201,KEBON PEDES,"Jl. Jambe Nenggang Km.8, Kec. Kebonpedes",Sukabumi,,2,"Jl. Jambe Nenggang Km.8, Kec. Kebonpedes, Sukabumi, Indonesia","Jambenenggang, Kebonpedes, Sukabumi Regency, West Java, Indonesia",-6.9495818,106.9683273
33,P3202172201,CIREUNGHAS,"Jl. Raya Cireunghas Km.10, Kec. Cireunghas",Sukabumi,1.0,2,"Jl. Raya Cireunghas Km.10, Kec. Cireunghas, Sukabumi, Indonesia","Jl. Cireunghas, Bencoy, Kec. Cireunghas, Kabupaten Sukabumi, Jawa Barat 43193, Indonesia",-6.9576259,107.0366888
34,P3202173201,SUKALARANG,"Jl. Raya Lembur, Kec. Sukalarang",Sukabumi,,2,"Jl. Raya Lembur, Kec. Sukalarang, Sukabumi, Indonesia","Jl. Lembur, Kec. Sukalarang, Kabupaten Sukabumi, Jawa Barat, Indonesia",-6.9181832,107.0017178
35,P3202180201,KARAWANG,"Jl. Selabintana Km 5,5 Selajambu, Kec. Sukabumi",Sukabumi,,2,"Jl. Selabintana Km 5,5 Selajambu, Kec. Sukabumi, Sukabumi, Indonesia","kantor, Jl. Selabintana No.Km. 5, RW.NO 267, Karawang, Kab. Sukabumi, Kabupaten Sukabumi, Jawa Barat 43151, Indonesia",-6.888005499999999,106.9418497
36,P3202190201,KADU DAMPIT,"Jl. Saya Kadudampit Situng Gunung, Kec. Kadudampit",Sukabumi,,2,"Jl. Saya Kadudampit Situng Gunung, Kec. Kadudampit, Sukabumi, Indonesia","Jl. Kadudampit, Kec. Kadudampit, Kabupaten Sukabumi, Jawa Barat, Indonesia",-6.8605761,106.9182278
37,P3202200201,CISAAT,"Jl. Gelanggang Olah Raga Cisaat, Kec. Cisaat",Sukabumi,1.0,2,"Jl. Gelanggang Olah Raga Cisaat, Kec. Cisaat, Sukabumi, Indonesia","Cisaat, Sukabumi Regency, West Java, Indonesia",-6.912503399999999,106.8871687
38,P3202200202,SELAJAMBE,"Jl. Selajambe No. 462, Kec. Cisaat",Sukabumi,,2,"Jl. Selajambe No. 462, Kec. Cisaat, Sukabumi, Indonesia","Jl. Selajambe No.462, Selajambe, Kec. Cisaat, Kabupaten Sukabumi, Jawa Barat 43152, Indonesia",-6.8874819,106.8884788
39,P3202201201,GUNUNGGURUH,"Pelabuhan II Km.12 Ds. Gunungguruh, Kec. Gunungguruh",Sukabumi,,2,"Pelabuhan II Km.12 Ds. Gunungguruh, Kec. Gunungguruh, Sukabumi, Indonesia","Jl. Pelabuhan II No.KM 12, Sirnaresmi, Kec. Gn. Guruh, Kota Sukabumi, Jawa Barat 43156, Indonesia",-6.9694665,106.8670608
40,P3202201202,CIBOLANGKIDUL,"Jl. Mangkalaya, Kec. Gunungguruh",Sukabumi,,2,"Jl. Mangkalaya, Kec. Gunungguruh, Sukabumi, Indonesia","Jl.Citengkor - Mangkalaya, Cisaat, Kec. Gn. Guruh, Kabupaten Sukabumi, Jawa Barat, Indonesia",-6.9157334,106.8847403
41,P3202210201,CIBADAK,"Jl. Raya Segog Km 11, Kec. Cibadak",Sukabumi,,2,"Jl. Raya Segog Km 11, Kec. Cibadak, Sukabumi, Indonesia","Jl. Raya Sukabumi, Kec. Cibadak, Kabupaten Sukabumi, Jawa Barat, Indonesia",-6.894206,106.7995832
42,P3202210202,SEKARWANGI,"Jl. Raya Siliwangi Blk Kecamatan Cibadak, Kec. Cibadak",Sukabumi,,2,"Jl. Raya Siliwangi Blk Kecamatan Cibadak, Kec. Cibadak, Sukabumi, Indonesia","Jl. Siliwangi, Jawa Barat, Indonesia",-6.9010539,106.8417633
43,P3202211201,CICANTAYAN,"Jl. KH. Daman Huri, Kec. Cicantayan",Sukabumi,,2,"Jl. KH. Daman Huri, Kec. Cicantayan, Sukabumi, Indonesia","Jl. K.H. Damanhuri, Kec. Cicantayan, Kabupaten Sukabumi, Jawa Barat, Indonesia",-6.9104283,106.8607375
44,P3202212201,CARINGIN,"Jl. Caringin Km.3 No.280 Selaawi, Kec. Caringin",Sukabumi,,2,"Jl. Caringin Km.3 No.280 Selaawi, Kec. Caringin, Sukabumi, Indonesia","Jl. Caringin, Kec. Caringin, Kabupaten Sukabumi, Jawa Barat 43154, Indonesia",-6.8732097,106.869669
45,P3202220101,NAGRAK,"Jl. Raya Cikidang, Kec. Nagrak",Sukabumi,1.0,1,"Jl. Raya Cikidang, Kec. Nagrak, Sukabumi, Indonesia","Jl. Raya Cikidang - Pamuruyan, Kabupaten Sukabumi, Jawa Barat, Indonesia",-6.8640394,106.7200348
47,P3202220202,GIRIJAYA,"Jl. Karajinan Km.10, Kec. Nagrak",Sukabumi,,2,"Jl. Karajinan Km.10, Kec. Nagrak, Sukabumi, Indonesia","Jl. Kerajinan, Darmareja, Kec. Nagrak, Kabupaten Sukabumi, Jawa Barat 43356, Indonesia",-6.8615026,106.8448654
46,P3202221201,CIAMBAR,"Jl. Cikatomas, Kec. Ciambar",Sukabumi,1.0,2,"Jl. Cikatomas, Kec. Ciambar, Sukabumi, Indonesia","Jl. Cikatomas, Kec. Ciambar, Kabupaten Sukabumi, Jawa Barat 43356, Indonesia",-6.8174331,106.7973411
48,P3202230101,CICURUG,"Jl. Siliwangi No.113, Kec. Cicurug",Sukabumi,1.0,1,"Jl. Siliwangi No.113, Kec. Cicurug, Sukabumi, Indonesia","Jl. Siliwangi No.113, Cicurug, Kec. Cicurug, Kabupaten Sukabumi, Jawa Barat 43359, Indonesia",-6.7823422,106.782581
49,P3202230202,CIPARI,"Jl. Cipari Ds. Cisaat, Kec. Cicurug",Sukabumi,,2,"Jl. Cipari Ds. Cisaat, Kec. Cicurug, Sukabumi, Indonesia","Jl. Cipari, Berkah, Kec. Bojong Genteng, Kabupaten Sukabumi, Jawa Barat 43353, Indonesia",-6.8354862,106.6969303
50,P3202240201,CIDAHU,"Ds. Cidahu, Kec. Cidahu",Sukabumi,,2,"Ds. Cidahu, Kec. Cidahu, Sukabumi, Indonesia","Cidahu, Sukabumi Regency, West Java 43358, Indonesia",-6.7495347,106.7175669
51,P3202250201,PARAKAN SALAK,"Jl. Neglasari No.3, Kec. Parakan Salak",Sukabumi,,2,"Jl. Neglasari No.3, Kec. Parakan Salak, Sukabumi, Indonesia","Parakansalak, Sukabumi Regency, West Java, Indonesia",-6.798619299999999,106.7087835
52,P3202260201,PARUNGKUDA,"Jl. Siliwangi No.21, Kec. Parung Kuda",Sukabumi,,2,"Jl. Siliwangi No.21, Kec. Parung Kuda, Sukabumi, Indonesia","Jl. Siliwangi Jl. Raya Sukabumi No.21, Pd. Kaso Landeuh, Kec. Parungkuda, Kabupaten Sukabumi, Jawa Barat 43357, Indonesia",-6.8087843,106.7699095
53,P3202261201,BOJONG GENTENG,"Jl. Raya Berekah Km.10, Kec. Bojong Genteng",Sukabumi,,2,"Jl. Raya Berekah Km.10, Kec. Bojong Genteng, Sukabumi, Indonesia","Berkah, Bojong Genteng, Sukabumi Regency, West Java, Indonesia",-6.8558485,106.702825
54,P3202270201,KELAPA NUNGGAL,"Jl. Raya Kelapanunggal Km.25, Kec. Kelapa Nunggal",Sukabumi,1.0,2,"Jl. Raya Kelapanunggal Km.25, Kec. Kelapa Nunggal, Sukabumi, Indonesia","Jl. Raya Kalapanunggal, Kec. Kalapanunggal, Kabupaten Sukabumi, Jawa Barat 43354, Indonesia",-6.8235612,106.6607734
55,P3202280201,CIKIDANG,"Jl. Raya Cikidang, Kec. Cikidang",Sukabumi,1.0,2,"Jl. Raya Cikidang, Kec. Cikidang, Sukabumi, Indonesia","Jl. Raya Cikidang, Kec. Cikidang, Kabupaten Sukabumi, Jawa Barat, Indonesia",-6.8963486,106.6478085
56,P3202290201,CISOLOK,"Jl. Raya Cisolok, Kec. Cisolok",Sukabumi,1.0,2,"Jl. Raya Cisolok, Kec. Cisolok, Sukabumi, Indonesia","Jl. Raya Cisolok, Kec. Cisolok, Kabupaten Sukabumi, Jawa Barat, Indonesia",-6.9545095,106.4354078
57,P3202291201,CIKAKAK,"Jl. Raya Cisolok Km.7, Kec. Cikakak",Sukabumi,,2,"Jl. Raya Cisolok Km.7, Kec. Cikakak, Sukabumi, Indonesia","Jl. Raya Cisolok No.KM. 7, Cikakak, Kec. Pelabuhanratu, Kabupaten Sukabumi, Jawa Barat 43365, Indonesia",-6.960575,106.4940197
58,P3202300201,KABANDUNGAN,"Jl. Tirtaatmaja No.11, Kec. Kabandungan",Sukabumi,,2,"Jl. Tirtaatmaja No.11, Kec. Kabandungan, Sukabumi, Indonesia","Jl. Tirta Atmaja No.11, Tugubandung, Kec. Kabandungan, Kabupaten Sukabumi, Jawa Barat 43368, Indonesia",-6.7968636,106.6229077
1,P3203010201,AGRABINTA,"Jl. Raya Bojongterong Rt 01/01 Ds. Mekarsari, Kec. Agrabinta",Cianjur,1.0,2,"Jl. Raya Bojongterong Rt 01/01 Ds. Mekarsari, Kec. Agrabinta, Cianjur, Indonesia","HWJ2+HGF, Mekarsari, Cianjur, Cianjur Regency, West Java 43273, Indonesia",-7.4186711,106.9020142
2,P3203011201,PUSAKASARI,"Jl. Raya Leles Ds. Pusakasari, Kec. Leles",Cianjur,,2,"Jl. Raya Leles Ds. Pusakasari, Kec. Leles, Cianjur, Indonesia","Jl. Raya Leles, Pusakasari, Kec. Leles, Kabupaten Cianjur, Jawa Barat, Indonesia",-7.3758117,106.9817944
3,P3203020101,SINDANG BARANG,"Jl. Raya Sindangbarang Cd Km 1 No.4 Ds.Saganten,Kec.Sindangbarang",Cianjur,1.0,1,"Jl. Raya Sindangbarang Cd Km 1 No.4 Ds.Saganten,Kec.Sindangbarang, Cianjur, Indonesia","Jl. Raya Sindangbarang, Saganten, Kec. Sindangbarang, Kabupaten Cianjur, Jawa Barat, Indonesia",-7.4594805,107.1546037
4,P3203030101,CIDAUN,"Jl. Raya Jayanti Cidaun, Kec. Cidaun",Cianjur,1.0,1,"Jl. Raya Jayanti Cidaun, Kec. Cidaun, Cianjur, Indonesia","MFC2+47H, Puncakbaru, Cidaun, Cianjur Regency, West Java 43275, Indonesia",-7.332352999999999,107.4499404
5,P3203040201,NARINGGUL,"Jl. Raya Ratel Gadog Kampung Naringgul, Kec. Naringgul",Cianjur,,2,"Jl. Raya Ratel Gadog Kampung Naringgul, Kec. Naringgul, Cianjur, Indonesia","Naringgul, Cianjur Regency, West Java, Indonesia",-7.337043599999999,107.3316667
6,P3203050201,CIBINONG,"Jl. Raya Cibinong Sindang Barang Ds. Sukajadi, Kec. Cibinong",Cianjur,,2,"Jl. Raya Cibinong Sindang Barang Ds. Sukajadi, Kec. Cibinong, Cianjur, Indonesia","Jl. Raya Cibinong, Sukajadi, Kec. Cibinong, Kabupaten Cianjur, Jawa Barat, Indonesia",-7.318263,107.1281071
7,P3203050202,GUNUNG BITUNG,"Jl. Raya Patrol - Agrabinta Ds. Pananggapan, Kec. Cibinong",Cianjur,,2,"Jl. Raya Patrol - Agrabinta Ds. Pananggapan, Kec. Cibinong, Cianjur, Indonesia","Jl. Raya Patrol, Kec. Cibinong, Kabupaten Cianjur, Jawa Barat 43271, Indonesia",-7.2896815,107.120271
8,P3203050203,GIRIJAYA,"Ds. Girijaya Pasirkuda, Kec. Pasir Kuda",Cianjur,,2,"Ds. Girijaya Pasirkuda, Kec. Pasir Kuda, Cianjur, Indonesia","Girijaya, Pasirkuda, Cianjur Regency, West Java, Indonesia",-7.2492195,107.1898113
9,P3203051201,CIKADU,"Koleberes, Kec. Cikadu",Cianjur,,2,"Koleberes, Kec. Cikadu, Cianjur, Indonesia","Koleberes, Cikadu, Cianjur Regency, West Java, Indonesia",-7.325499000000001,107.2522198
10,P3203060201,TANGGEUNG,"Pasir Kolat Tanggeung, Kec. Tanggeung",Cianjur,1.0,2,"Pasir Kolat Tanggeung, Kec. Tanggeung, Cianjur, Indonesia","Tanggeung, Cianjur Regency, West Java, Indonesia",-7.2713586,107.1203909
11,P3203070201,KADUPANDAK,"Ds. Kadupandak, Kec. Kadupandak",Cianjur,,2,"Ds. Kadupandak, Kec. Kadupandak, Cianjur, Indonesia","Kadupandak, Cianjur Regency, West Java, Indonesia",-7.2586365,107.0465615
12,P3203071201,BOJONGLARANG,"Jl. Pasar Bojonglarang Ds. Bojolarang, Kec. Cijati",Cianjur,,2,"Jl. Pasar Bojonglarang Ds. Bojolarang, Kec. Cijati, Cianjur, Indonesia","Bojonglarang, Cijati, Cianjur Regency, West Java, Indonesia",-7.269364500000001,107.0037509
13,P3203071202,CIJATI,"Ds. Cijati, Kec. Cijati",Cianjur,1.0,2,"Ds. Cijati, Kec. Cijati, Cianjur, Indonesia","Cijati, Cianjur Regency, West Java, Indonesia",-7.2578494,107.0332746
14,P3203080201,TAKOKAK,"Jl. Pasanggrahan No. 9 Ds. Pasawahan, Kec. Takokak",Cianjur,1.0,2,"Jl. Pasanggrahan No. 9 Ds. Pasawahan, Kec. Takokak, Cianjur, Indonesia","Jl. Pasanggrahan No.9, Pasawahan, Kec. Takokak, Kabupaten Cianjur, Jawa Barat 43265, Indonesia",-7.0500696,107.0038539
15,P3203090101,SUKANAGARA,"Jl. Raya Sukanagara, Kec. Sukanagara",Cianjur,1.0,1,"Jl. Raya Sukanagara, Kec. Sukanagara, Cianjur, Indonesia","Jl. Andes Raya, Sukarame, Kec. Sukanagara, Kabupaten Cianjur, Jawa Barat 43264, Indonesia",-7.1329373,107.1209772
16,P3203100101,PAGELARAN,"Jl. Raya Pagelaran No. 18 Ds. Pagelaran, Kec. Pagelaran",Cianjur,1.0,1,"Jl. Raya Pagelaran No. 18 Ds. Pagelaran, Kec. Pagelaran, Cianjur, Indonesia","Jl. Raya Pagelaran No.18, Suko Arum, Banjarejo, Kec. Pagelaran, Kabupaten Malang, Jawa Timur 65174, Indonesia",-8.1916593,112.6229752
17,P3203100202,SINDANGKERTA,"Jl. Pasir Sari Ds. Sindangkerta, Kec. Pagelaran",Cianjur,,2,"Jl. Pasir Sari Ds. Sindangkerta, Kec. Pagelaran, Cianjur, Indonesia","Sindangkerta, Pagelaran, Cianjur Regency, West Java, Indonesia",-7.181174800000001,107.1395903
18,P3203110201,CAMPAKA,"Jl. Raya Warungbitung Ds. Sukajadi, Kec. Campaka",Cianjur,,2,"Jl. Raya Warungbitung Ds. Sukajadi, Kec. Campaka, Cianjur, Indonesia","Jl. Raya Wr. Bitung, Sukajadi, Kec. Campaka, Kabupaten Cianjur, Jawa Barat, Indonesia",-7.003038,107.1429668
19,P3203111201,CAMPAKAMULYA,"Jl. Warungkadu Km 5 , Kec. Campakamulya",Cianjur,,2,"Jl. Warungkadu Km 5 , Kec. Campakamulya, Cianjur, Indonesia","W5HH+673, Jl. Raya Warungkadu, Campakamulya, Kec. Campaka Mulya, Kabupaten Cianjur, Jawa Barat 43269, Indonesia",-7.0719794,107.1781718
20,P3203120201,CIBEBER,"Jl. Raya Cibeber Km 14 Cihaur, Kec. Cibeber",Cianjur,1.0,2,"Jl. Raya Cibeber Km 14 Cihaur, Kec. Cibeber, Cianjur, Indonesia","Jl. Raya Cibeber No.Km. 14, Cipetir, Kec. Cibeber, Kabupaten Cianjur, Jawa Barat 43262, Indonesia",-6.9362613,107.1228811
21,P3203120202,CIBAREGBEG,"Kampung Nangelang Ds. Cibaregbeg, Kec. Cibeber",Cianjur,,2,"Kampung Nangelang Ds. Cibaregbeg, Kec. Cibeber, Cianjur, Indonesia","Cibaregbeg, Cibeber, Cianjur Regency, West Java, Indonesia",-6.9110023,107.1750393
22,P3203130201,WARUNGKONDANG,"Jl. Sukabumi Ds Jambudipa No. 43, Kec. Warungkondang",Cianjur,,2,"Jl. Sukabumi Ds Jambudipa No. 43, Kec. Warungkondang, Cianjur, Indonesia","Jl. Raya Sukabumi, Jambudipa, Kec. Warungkondang, Kabupaten Cianjur, Jawa Barat, Indonesia",-6.8735217,107.0924023
23,P3203131201,GEKBRONG,"Jl. Raya Sukabumi Km 15 Ds Gekbrong, Kec. Gekbrong",Cianjur,,2,"Jl. Raya Sukabumi Km 15 Ds Gekbrong, Kec. Gekbrong, Cianjur, Indonesia","Jl. Raya Sukabumi - Cianjur No.Km. 15, Gekbrong, Kec. Gekbrong, Kabupaten Cianjur, Jawa Barat 43256, Indonesia",-6.8675285,107.0396968
24,P3203140201,SUKASARI,"Jl. Raya Cibeber Km 9 No. 14 Sukasari, Kec. Cilaku",Cianjur,1.0,2,"Jl. Raya Cibeber Km 9 No. 14 Sukasari, Kec. Cilaku, Cianjur, Indonesia","Jl. Raya Cibeber No.Km, RW.9, Sukasari, Kec. Cilaku, Kabupaten Cianjur, Jawa Barat 43285, Indonesia",-6.8825642,107.125573
25,P3203150201,SUKALUYU,"Jl. Bojongsari Sukamulya, Kec. Sukaluyu",Cianjur,,2,"Jl. Bojongsari Sukamulya, Kec. Sukaluyu, Cianjur, Indonesia","Sukamulya, Sukaluyu, Cianjur Regency, West Java, Indonesia",-6.8420289,107.2282225
26,P3203160201,BOJONGPICUNG,"Jl. Moch. Ali  Ds. Neglasari, Kec. Bojongpicung",Cianjur,,2,"Jl. Moch. Ali  Ds. Neglasari, Kec. Bojongpicung, Cianjur, Indonesia","Jl. Moch Ali, Neglasari, Kec. Bojongpicung, Kabupaten Cianjur, Jawa Barat, Indonesia",-6.8444375,107.2708323
27,P3203160202,CIKONDANG,"Jl. Cikondang Sukarama, Kec. Bojongpicung",Cianjur,,2,"Jl. Cikondang Sukarama, Kec. Bojongpicung, Cianjur, Indonesia","Jl. Cikondang, Kec. Bojongpicung, Kabupaten Cianjur, Jawa Barat 43283, Indonesia",-6.8691102,107.2288777
28,P3203170101,CIRANJANG,"Jl. Rumah Sakit No. 194, Kec. Ciranjang",Cianjur,1.0,1,"Jl. Rumah Sakit No. 194, Kec. Ciranjang, Cianjur, Indonesia","56PV+6FH, Jl. Rumah Sakit No.194, Ciranjang, Kec. Ciranjang, Kabupaten Cianjur, Jawa Barat 43282, Indonesia",-6.8144515,107.2437479
29,P3203161201,CIPEUYEUM,"Jl. Raya Bandung Ds. Kertamukti Haurwangi, Kec. Haurwangi",Cianjur,1.0,2,"Jl. Raya Bandung Ds. Kertamukti Haurwangi, Kec. Haurwangi, Cianjur, Indonesia","Jl. Raya Bandung, Kertamukti, Kec. Haurwangi, Kabupaten Cianjur, Jawa Barat, Indonesia",-6.8152806,107.2975003
30,P3203180101,MANDE,"Jl. Arwinda Km 9 Ds. Jamali, Kec. Mande",Cianjur,1.0,1,"Jl. Arwinda Km 9 Ds. Jamali, Kec. Mande, Cianjur, Indonesia","Jl. Arwinda Desa No.KM, RW.8, Kademangan, Kec. Mande, Kabupaten Cianjur, Jawa Barat 43292, Indonesia",-6.7710117,107.1912548
31,P3203180202,KADEMANGAN,"Jl. Aria Nata Mangala Ds. Kademangan, Kec. Mande",Cianjur,,2,"Jl. Aria Nata Mangala Ds. Kademangan, Kec. Mande, Cianjur, Indonesia","Jl. Aria Natamanggala, Kademangan, Kec. Mande, Kabupaten Cianjur, Jawa Barat, Indonesia",-6.7694482,107.1944915
32,P3203190201,KARANG TENGAH,"Jl. Raya Bandung Km 4 No. 14 Ds Bojong, Kec. Karang Tengah",Cianjur,,2,"Jl. Raya Bandung Km 4 No. 14 Ds Bojong, Kec. Karang Tengah, Cianjur, Indonesia","Jl. Raya Bandung No.KM.4, Sabandar, Kec. Karangtengah, Kabupaten Cianjur, Jawa Barat 43281, Indonesia",-6.807247299999999,107.1588715
33,P3203190202,CIHERANG,"Jl. Raya Bandung Km 8 Ds. Ciherang , Kec. Karang Tengah",Cianjur,,2,"Jl. Raya Bandung Km 8 Ds. Ciherang , Kec. Karang Tengah, Cianjur, Indonesia","Jl. Raya Bandung No.km 8, Babakancaringin, Kec. Karangtengah, Kabupaten Cianjur, Jawa Barat 43281, Indonesia",-6.8019589,107.2112027
34,P3203200201,CIANJUR KOTA,"Jl. Panggeran Hidayatullah No. 1, Kec. Cianjur",Cianjur,,2,"Jl. Panggeran Hidayatullah No. 1, Kec. Cianjur, Cianjur, Indonesia","Jl. Pangeran Hidayatullah No.1, Sawah Gede, Kec. Cianjur, Kabupaten Cianjur, Jawa Barat 43212, Indonesia",-6.8266012,107.1357416
35,P3203200202,NAGRAK,"Jl. Gaot Mangun Praja  Nagrak, Kec. Cianjur",Cianjur,,2,"Jl. Gaot Mangun Praja  Nagrak, Kec. Cianjur, Cianjur, Indonesia","Jl. Gatot Mangkupraja, Nagrak, Kec. Cianjur, Kabupaten Cianjur, Jawa Barat, Indonesia",-6.8308143,107.1179282
36,P3203200203,MUKA,"Jl. Dr Muwardi No. 2A Muka, Kec. Cianjur",Cianjur,,2,"Jl. Dr Muwardi No. 2A Muka, Kec. Cianjur, Cianjur, Indonesia","Jl. Dr. Muwardi No.2A, Muka, Kec. Cianjur, Kabupaten Cianjur, Jawa Barat 43215, Indonesia",-6.810542000000001,107.1479055
37,P3203210201,CUGENANG,"Jl. Cariu No. 1 Ds. Mangunkerta, Kec. Cugenang",Cianjur,1.0,2,"Jl. Cariu No. 1 Ds. Mangunkerta, Kec. Cugenang, Cianjur, Indonesia","53W6+X4H, Mangunkerta, Cugenang, Cianjur Regency, West Java 43252, Indonesia",-6.802552899999999,107.0603507
38,P3203210202,CIJEDIL,"Jl. Raya Puncak Km 7 Ds. Cijedil, Kec. Cugenang",Cianjur,,2,"Jl. Raya Puncak Km 7 Ds. Cijedil, Kec. Cugenang, Cianjur, Indonesia","Jl. Raya Puncak - Cianjur No.KM 07, Cijedil, Kec. Pacet, Kabupaten Cianjur, Jawa Barat 43252, Indonesia",-6.801410499999999,107.0888562
39,P3203220201,CIPENDAWA,"Jl. Wijaya Kusumah Ds. Cipendawa, Kec. Pacet",Cianjur,,2,"Jl. Wijaya Kusumah Ds. Cipendawa, Kec. Pacet, Cianjur, Indonesia","Jl. Wijaya Kusuma, Cipendawa, Kec. Pacet, Kabupaten Cianjur, Jawa Barat 43253, Indonesia",-6.7491507,107.0484317
40,P3203220202,SUKANAGALIH,"Jl. Tegal Tengah Ds. Sukanagalih, Kec. Pacet",Cianjur,,2,"Jl. Tegal Tengah Ds. Sukanagalih, Kec. Pacet, Cianjur, Indonesia","Sukanagalih, Pacet, Cianjur Regency, West Java, Indonesia",-6.7092195,107.0568962
41,P3203221201,CIPANAS,"Jl. Pahlawan No. 1, Kec. Cipanas",Cianjur,,2,"Jl. Pahlawan No. 1, Kec. Cipanas, Cianjur, Indonesia","Cipanas, Cianjur Regency, West Java, Indonesia",-6.719864800000001,107.0317582
42,P3203230101,SUKARESMI,"Jl.Mariwati Km 6 Ds. Kawungluwuk, Kec. Sukaresmi",Cianjur,1.0,1,"Jl.Mariwati Km 6 Ds. Kawungluwuk, Kec. Sukaresmi, Cianjur, Indonesia","Jl. Mariwati No.km 6, Pakuon, Kec. Sukaresmi, Kabupaten Cianjur, Jawa Barat 43254, Indonesia",-6.733116,107.0842468
43,P3203230202,SUKAMAHI,"Jl. Sadamanya No. D 13 Ds. Sukamahi, Kec. Sukaresmi",Cianjur,,2,"Jl. Sadamanya No. D 13 Ds. Sukamahi, Kec. Sukaresmi, Cianjur, Indonesia","Sukamahi, Kubang, Kec. Sukaresmi, Kabupaten Cianjur, Jawa Barat, Indonesia",-6.699999999999999,107.1
44,P3203240101,CIKALONGKULON,"Jl. Aria Wiratanudatar Ds. Sukagalih, Kec. Cikalongkulon",Cianjur,1.0,1,"Jl. Aria Wiratanudatar Ds. Sukagalih, Kec. Cikalongkulon, Cianjur, Indonesia","Jl. Aria Wiratanudatar, Sukagalih, Kec. Cikalongkulon, Kabupaten Cianjur, Jawa Barat, Indonesia",-6.7167673,107.2131674
45,P3203240202,CIJAGANG,"Jl. Kramat Cikundul Ds. Cijagang, Kec. Cikalongkulon",Cianjur,,2,"Jl. Kramat Cikundul Ds. Cijagang, Kec. Cikalongkulon, Cianjur, Indonesia","75XJ+RHR, Cijagang, Cikalongkulon, Cianjur Regency, West Java 43291, Indonesia",-6.7003882,107.1813864
1,P3204010201,CIWIDEY,"Jl. Babakan III Ds. Ciwidey, Kec. Ciwidey",Bandung,,2,"Jl. Babakan III Ds. Ciwidey, Kec. Ciwidey, Bandung, Indonesia","Ciwidey, Bandung Regency, West Java, Indonesia",-7.084922499999999,107.4461432
2,P3204010202,RAWABOGO,"Ds. Rawabogo, Kec. Ciwidey",Bandung,,2,"Ds. Rawabogo, Kec. Ciwidey, Bandung, Indonesia","Rawabogo, Ciwidey, Bandung Regency, West Java, Indonesia",-7.0663918,107.4351532
3,P3204011201,RANCABALI,"Jl. Rancabali Situpatenggang Ds. Patengan, Kec. Rancabali",Bandung,1.0,2,"Jl. Rancabali Situpatenggang Ds. Patengan, Kec. Rancabali, Bandung, Indonesia","Jl. Raya Ciwidey - Rancabali, Patengan, Kec. Rancabali, Kabupaten Bandung, Jawa Barat, Indonesia",-7.145749,107.3884992
4,P3204020201,PASIR JAMBU,"Ds. Pasirjambu, Kec. Pasir Jambu",Bandung,1.0,2,"Ds. Pasirjambu, Kec. Pasir Jambu, Bandung, Indonesia","Pasirjambu, Bandung Regency, West Java, Indonesia",-7.0941717,107.4831256
5,P3204020202,SUGIHMUKTI,"Ds. Sugihmukti, Kec. Pasir Jambu",Bandung,,2,"Ds. Sugihmukti, Kec. Pasir Jambu, Bandung, Indonesia","Sugihmukti, Pasirjambu, Bandung Regency, West Java, Indonesia",-7.2026011,107.4558555
6,P3204040101,PANGALENGAN DTP,"Jl. Alun-Alun Pengalengan, Ds. Pangalengan, Kec. Pangalengan",Bandung,1.0,1,"Jl. Alun-Alun Pengalengan, Ds. Pangalengan, Kec. Pangalengan, Bandung, Indonesia","Jl. Raya Pangalengan No.28, Pangalengan, Kec. Pangalengan, Kabupaten Bandung, Jawa Barat 40378, Indonesia",-7.175287200000001,107.5708808
7,P3204040202,SUKAMANAH,"Kampung Pintu Ds. Sukamanah, Kec. Pangalengan",Bandung,,2,"Kampung Pintu Ds. Sukamanah, Kec. Pangalengan, Bandung, Indonesia","Sukamanah, Pangalengan, Bandung Regency, West Java, Indonesia",-7.204665800000001,107.6008169
8,P3204040203,WARNASARI,"Ds. Warnasari, Kec. Pangalengan",Bandung,,2,"Ds. Warnasari, Kec. Pangalengan, Bandung, Indonesia","Warnasari, Pangalengan, Bandung Regency, West Java, Indonesia",-7.1953417,107.5090974
9,P3204030201,CIKALONG,"Jl. Raya Pengalengan Ds. Cikalong, Kec. Cimaung",Bandung,,2,"Jl. Raya Pengalengan Ds. Cikalong, Kec. Cimaung, Bandung, Indonesia","Jl. Raya Pangalengan, Cikalong, Kec. Cimaung, Kabupaten Bandung, Jawa Barat, Indonesia",-7.1208037,107.5553305
10,P3204030202,CAMPAKAMULYA,"Jl. Gunung Puntang Ds. Campakamulya, Kec. Cimaung",Bandung,,2,"Jl. Gunung Puntang Ds. Campakamulya, Kec. Cimaung, Bandung, Indonesia","Jl. Gn. Puntang, Campakamulya, Kec. Cimaung, Kabupaten Bandung, Jawa Barat, Indonesia",-7.1039398,107.5919508
11,P3204050201,KERTA SARI,"Jl. Lebaksari Ds. Cibeureum, Kec. Kertasari",Bandung,1.0,2,"Jl. Lebaksari Ds. Cibeureum, Kec. Kertasari, Bandung, Indonesia","Cibeureum, Kertasari, Bandung Regency, West Java, Indonesia",-7.1892838,107.6629672
12,P3204050202,SANTOSA,"Jl. Raya Santosa Ds. Santosa, Kec. Kertasari",Bandung,,2,"Jl. Raya Santosa Ds. Santosa, Kec. Kertasari, Bandung, Indonesia","Santosa, Kec. Kertasari, Kabupaten Bandung, Jawa Barat, Indonesia",-7.251945000000001,107.636803
13,P3204060201,PACET,"Jl. Cagak Ds. Maruyung, Kec. Pacet",Bandung,1.0,2,"Jl. Cagak Ds. Maruyung, Kec. Pacet, Bandung, Indonesia","Jl. Cagak, Maruyung, Kec. Pacet, Kabupaten Bandung, Jawa Barat 40385, Indonesia",-7.1051896,107.7047129
14,P3204060202,PANCA,"Ds. Nagrak, Kec. Pacet",Bandung,,2,"Ds. Nagrak, Kec. Pacet, Bandung, Indonesia","Nagrak, Pacet, Bandung Regency, West Java, Indonesia",-7.122259499999999,107.7251314
15,P3204070201,IBUN,"Jl. Raya Oma Anggawisata Ds. Ibun, Kec. Ibun",Bandung,1.0,2,"Jl. Raya Oma Anggawisata Ds. Ibun, Kec. Ibun, Bandung, Indonesia","Ibun, Bandung Regency, West Java, Indonesia",-7.1307171,107.772504
16,P3204070202,SUDI,"Ds. Sudi, Kec. Ibun",Bandung,,2,"Ds. Sudi, Kec. Ibun, Bandung, Indonesia","Sudi, Ibun, Bandung Regency, West Java, Indonesia",-7.0805827,107.7680624
17,P3204080201,PASEH,"Jl. Cipaku No.94 Ds. Cipaku, Kec. Paseh",Bandung,,2,"Jl. Cipaku No.94 Ds. Cipaku, Kec. Paseh, Bandung, Indonesia","Jl. Raya Cipaku No.94, Cipaku, Kec. Paseh, Kabupaten Bandung, Jawa Barat 40383, Indonesia",-7.0550098,107.7788775
18,P3204080202,CIPEDES,"Ds. Cipedes, Kec. Paseh",Bandung,,2,"Ds. Cipedes, Kec. Paseh, Bandung, Indonesia","Cipedes, Paseh, Bandung Regency, West Java, Indonesia",-7.0331395,107.7947126
19,P3204090201,CIKANCUNG,"Jl. Cinangka Ds. Mandalasari, Kec. Cikancung",Bandung,1.0,2,"Jl. Cinangka Ds. Mandalasari, Kec. Cikancung, Bandung, Indonesia","Jl. Cinangka, Mandalasari, Kec. Cikancung, Kabupaten Bandung, Jawa Barat 40396, Indonesia",-7.0135586,107.8295997
20,P3204090202,CILULUK,"Jl. Raya Cijapati Ds. Ciluluk, Kec. Cikancung",Bandung,,2,"Jl. Raya Cijapati Ds. Ciluluk, Kec. Cikancung, Bandung, Indonesia","Jl. Raya Cijapati, Ciluluk, Kec. Cikancung, Kabupaten Bandung, Jawa Barat, Indonesia",-7.0377637,107.8111735
21,P3204100101,CICALENGKA DTP,"Jl. Raya Cicalengka No.321 Ds. Cicalengka Wetan, Kec. Cicalengka",Bandung,,1,"Jl. Raya Cicalengka No.321 Ds. Cicalengka Wetan, Kec. Cicalengka, Bandung, Indonesia","Jl. Raya Barat Cicalengka No.321, Cicalengka Kulon, Kec. Cicalengka, Kabupaten Bandung, Jawa Barat 40395, Indonesia",-6.986789399999999,107.8391164
22,P3204100202,SAWAHLEGA,"Ds. Nagrog, Kec. Cicalengka",Bandung,,2,"Ds. Nagrog, Kec. Cicalengka, Bandung, Indonesia","Jl. Desa Nagrog, Nagrog, Kec. Cicalengka, Kabupaten Bandung, Jawa Barat 40395, Indonesia",-7.0007183,107.8690784
23,P3204101201,NAGREG,"Jl. Raya Nagreg Km.37 Ds. Nagreg, Kec. Nagreg",Bandung,1.0,2,"Jl. Raya Nagreg Km.37 Ds. Nagreg, Kec. Nagreg, Bandung, Indonesia","Jl. Raya Nagreg No.km, Citaman, Kec. Nagreg, Kabupaten Bandung, Jawa Barat 40215, Indonesia",-7.0153265,107.8783287
24,P3204110101,RANCA EKEK DTP,"Ds. Rancaekek Wetan, Kec. Rancaekek",Bandung,1.0,1,"Ds. Rancaekek Wetan, Kec. Rancaekek, Bandung, Indonesia","Rancaekek, Bandung Regency, West Java, Indonesia",-6.9672737,107.7649114
25,P3204110202,LINGGAR,"Jl. Raya Garut Ds. Linggar, Kec. Rancaekek",Bandung,,2,"Jl. Raya Garut Ds. Linggar, Kec. Rancaekek, Bandung, Indonesia","Jl. Raya Bandung - Garut No.Ds, Ciherang, Kec. Nagreg, Kabupaten Bandung, Jawa Barat 40215, Indonesia",-7.049716,107.8996224
26,P3204110203,NANJUNGMEKAR,"Jl. Raya Cicalengka Ds. Nanjungmekar, Kec. Rancaekek",Bandung,,2,"Jl. Raya Cicalengka Ds. Nanjungmekar, Kec. Rancaekek, Bandung, Indonesia","Jl. Raya Barat Cicalengka, Nanjungmekar, Kec. Rancaekek, Kabupaten Bandung, Jawa Barat, Indonesia",-6.9693991,107.827293
27,P3204120201,CIKARO,"Jl. Talun Ds. Majakerta, Kec. Majalaya",Bandung,,2,"Jl. Talun Ds. Majakerta, Kec. Majalaya, Bandung, Indonesia","KP, Jl. Rancakendal Jl. Talun No.DS, RT.02/RW04, RANCAKENDAL, Kec. Rancaekek, Kabupaten Bandung, Jawa Barat, Indonesia",-6.966195000000001,107.7728916
28,P3204120202,MAJALAYA,"Jl. Stasiun No.1 Ds. Majalaya, Kec. Majalaya",Bandung,,2,"Jl. Stasiun No.1 Ds. Majalaya, Kec. Majalaya, Bandung, Indonesia","Majalaya, Bandung Regency, West Java, Indonesia",-7.0517978,107.7458559
29,P3204120203,WANGISAGARA,"Jl. Raya Pacet Ds. Wangisagara, Kec. Majalaya",Bandung,,2,"Jl. Raya Pacet Ds. Wangisagara, Kec. Majalaya, Bandung, Indonesia","Jl. Raya Pacet, Kec. Majalaya, Kabupaten Bandung, Jawa Barat, Indonesia",-7.0728923,107.7067149
30,P3204121202,PADAMUKTI,"Jl. Panyadap Ds. Padamukti, Kec. Solokan Jeruk",Bandung,,2,"Jl. Panyadap Ds. Padamukti, Kec. Solokan Jeruk, Bandung, Indonesia","Jl. Panyadap Majalaya No.ds, Panyadap, Kec. Solokanjeruk, Kabupaten Bandung, Jawa Barat 40376, Indonesia",-7.023781,107.774989
31,P3204121201,SOLOKAN JERUK,"Ds. Solokan Jeruk Rt 01/RW III, Kec. Solokan Jeruk",Bandung,1.0,2,"Ds. Solokan Jeruk Rt 01/RW III, Kec. Solokan Jeruk, Bandung, Indonesia","Solokan Jeruk, Solokanjreruk, Bandung Regency, West Java, Indonesia",-7.01147,107.7489814
32,P3204130101,CIPARAY DTP,"Jl. Raya Lasur No. 819, Ds. Ciparay, Kec. Ciparay",Bandung,1.0,1,"Jl. Raya Lasur No. 819, Ds. Ciparay, Kec. Ciparay, Bandung, Indonesia","Jl. Adhyaksa Raya, Kabupaten Bandung, Jawa Barat, Indonesia",-6.9662329,107.6351892
33,P3204130202,PAKUTANDANG,"Ds. Pakutandang, Kec. Ciparay",Bandung,,2,"Ds. Pakutandang, Kec. Ciparay, Bandung, Indonesia","Pakutandang, Ciparay, Bandung Regency, West Java, Indonesia",-7.049371499999999,107.708849
34,P3204130203,SUMBERSARI,"Ds. Sumbersari, Kec. Ciparay",Bandung,,2,"Ds. Sumbersari, Kec. Ciparay, Bandung, Indonesia","Sumbersari, Ciparay, Bandung Regency, West Java, Indonesia",-7.0045509,107.7014482
35,P3204140201,BALEENDAH,"Jl. Kiastramanggala Ds. Baleendah, Kec. Baleendah",Bandung,,2,"Jl. Kiastramanggala Ds. Baleendah, Kec. Baleendah, Bandung, Indonesia","Jl. Kiastramanggala, Baleendah, Kec. Baleendah, Kabupaten Bandung, Jawa Barat 40375, Indonesia",-7.0073243,107.6238643
36,P3204140202,JELEKONG,"Jl. Raya Ciparay Ds. Jelekong, Kec. Baleendah",Bandung,,2,"Jl. Raya Ciparay Ds. Jelekong, Kec. Baleendah, Bandung, Indonesia","Jl. Raya Pacet, Kabupaten Bandung, Jawa Barat, Indonesia",-7.0728923,107.7067149
37,P3204140203,RANCAMANYAR,"Ds. Rancamanyar, Kec. Baleendah",Bandung,,2,"Ds. Rancamanyar, Kec. Baleendah, Bandung, Indonesia","Rancamanyar, Baleendah, Bandung Regency, West Java, Indonesia",-6.988033,107.5948986
38,P3204150201,ARJASARI,"Jl. Raya Arjasari Ds. Arjasari, Kec. Arjasari",Bandung,,2,"Jl. Raya Arjasari Ds. Arjasari, Kec. Arjasari, Bandung, Indonesia","Jl. Raya Arjasari, Lebakwangi, Kec. Arjasari, Kabupaten Bandung, Jawa Barat 40379, Indonesia",-7.0449328,107.6089908
39,P3204150102,BANJARAN NAMBO DTP,"Ds. Batukarut, Kec. Arjasari",Bandung,1.0,1,"Ds. Batukarut, Kec. Arjasari, Bandung, Indonesia","Batukarut, Arjasari, Bandung Regency, West Java, Indonesia",-7.0459926,107.5963782
40,P3204161201,NAGRAK,"Kmp Singkur Ds. Jatisari, Kec. Cangkuang",Bandung,,2,"Kmp Singkur Ds. Jatisari, Kec. Cangkuang, Bandung, Indonesia","Jl. Singkur, Jatisari, Kec. Cangkuang, Kabupaten Bandung, Jawa Barat 40238, Indonesia",-7.0625219,107.5539997
41,P3204160201,KIANGROKE,"Jl. Pangalengan Ds. Kiangroke, Kec. Banjaran",Bandung,,2,"Jl. Pangalengan Ds. Kiangroke, Kec. Banjaran, Bandung, Indonesia","Jl. Raya Pangalengan, Kiangroke, Kec. Banjaran, Kabupaten Bandung, Jawa Barat, Indonesia",-7.053889,107.5719776
42,P3204160202,BANJARAN,"Ds. Banjaran Kulon, Kec. Banjaran",Bandung,,2,"Ds. Banjaran Kulon, Kec. Banjaran, Bandung, Indonesia","Banjaran, Bandung Regency, West Java, Indonesia",-7.047687199999999,107.5836555
43,P3204170201,PAMEUNGPEUK,"Jl. Raya Banjaran Km 14 Ds. Sukasari, Kec. Pameungpeuk",Bandung,,2,"Jl. Raya Banjaran Km 14 Ds. Sukasari, Kec. Pameungpeuk, Bandung, Indonesia","Jl. Raya Banjaran Barat No.Km 14, RW.6, Sukasari, Kec. Pameungpeuk, Kabupaten Bandung, Jawa Barat 40376, Indonesia",-7.024748000000001,107.5944494
44,P3204180201,KATAPANG,"Jl. Terusan Kopo No. 20, Ds. Katapang, Kec. Katapang",Bandung,,2,"Jl. Terusan Kopo No. 20, Ds. Katapang, Kec. Katapang, Bandung, Indonesia","Jl. Terusan Kopo No.20, Katapang, Kec. Katapang, Kabupaten Bandung, Jawa Barat 40921, Indonesia",-7.010297599999999,107.5507283
45,P3204180202,SANGKAN HURIP,"Ds. Sukamukti, Kec. Katapang",Bandung,,2,"Ds. Sukamukti, Kec. Katapang, Bandung, Indonesia","Jl. Cibogo No.1, Sukamukti, Kec. Katapang, Kabupaten Bandung, Jawa Barat 40921, Indonesia",-7.003500499999999,107.5765505
46,P3204190201,SOREANG,"Ds. Pamekaran, Kec. Soreang",Bandung,,2,"Ds. Pamekaran, Kec. Soreang, Bandung, Indonesia","Kp cigembreng RT 03 RW 06 no 76, Pamekaran, Kec. Soreang, Kabupaten Bandung, Jawa Barat 40912, Indonesia",-7.0232604,107.5211127
47,P3204190202,SUKAJADI,"Ds. Sukajadi, Kec. Soreang",Bandung,,2,"Ds. Sukajadi, Kec. Soreang, Bandung, Indonesia","Jl. Dahlia No.23, Cingcin, Kec. Soreang, Kabupaten Bandung, Jawa Barat 40921, Indonesia",-7.0272463,107.5388578
48,P3204191201,KUTAWARINGIN,"Ds. Jatisari, Kec. Kutawaringin",Bandung,,2,"Ds. Jatisari, Kec. Kutawaringin, Bandung, Indonesia","Jatisari, Kutawaringin, Bandung Regency, West Java, Indonesia",-6.975504099999999,107.5179721
49,P3204191202,KOPO,"Ds. Kopo, Kec. Kutawaringin",Bandung,,2,"Ds. Kopo, Kec. Kutawaringin, Bandung, Indonesia","MIKO MALL, Jl. Raya Kopo Blok B 31 No.5 Lt. 1, Cirangrang, Kec. Babakan Ciparay, Kabupaten Bandung, Jawa Barat 40226, Indonesia",-6.960391,107.581376
50,P3204250201,MARGA ASIH,"Jl. Nanjung Ds. Margaasih, Kec. Margaasih",Bandung,1.0,2,"Jl. Nanjung Ds. Margaasih, Kec. Margaasih, Bandung, Indonesia","Jl. Nanjung, Kec. Margaasih, Kabupaten Bandung, Jawa Barat, Indonesia",-6.9310528,107.5402073
51,P3204250202,RAHAYU,"Jl. Cibolerang Ds. Rahayu, Kec. Margaasih",Bandung,,2,"Jl. Cibolerang Ds. Rahayu, Kec. Margaasih, Bandung, Indonesia","Jl. Cibolerang, Rahayu, Kec. Margaasih, Kabupaten Bandung, Jawa Barat 40218, Indonesia",-6.9628079,107.5597657
52,P3204260201,BIHBUL,"Jl. Kopo 14 Ds. Margahayu Tengah, Kec. Margahayu",Bandung,,2,"Jl. Kopo 14 Ds. Margahayu Tengah, Kec. Margahayu, Bandung, Indonesia","Jl. Raya Kopo No.14, Margahayu Tengah, Kec. Margahayu, Kabupaten Bandung, Jawa Barat 40225, Indonesia",-6.9618391,107.5786351
53,P3204260202,MARGAHAYU SELATAN,"Komp Margahayu Kencana Blok E4, Ds.Margahayu Sel., Kec. Margahayu",Bandung,,2,"Komp Margahayu Kencana Blok E4, Ds.Margahayu Sel., Kec. Margahayu, Bandung, Indonesia","Blk. E4, Mekar Rahayu, Kec. Margaasih, Kabupaten Bandung, Jawa Barat 40218, Indonesia",-6.9690053,107.5537058
54,P3204270201,DAYEUH KOLOT,"Jl. Raya Dayeuhkolot No. 423, Ds. Dayeuh Kolot, Kec. Dayeuh Kolot",Bandung,,2,"Jl. Raya Dayeuhkolot No. 423, Ds. Dayeuh Kolot, Kec. Dayeuh Kolot, Bandung, Indonesia","Jl. Raya Dayeuhkolot No.423, Dayeuhkolot, Kec. Dayeuhkolot, Kabupaten Bandung, Jawa Barat 40258, Indonesia",-6.9896686,107.6273354
55,P3204270202,CANGKUANG,"Jl. Cangkuang RT 02/ RW 07, Ds. Cangkuang Barat, Kec. Dayeuh Kolot",Bandung,,2,"Jl. Cangkuang RT 02/ RW 07, Ds. Cangkuang Barat, Kec. Dayeuh Kolot, Bandung, Indonesia","Jl. Cibogo Indah Jl. Cangkuang Kulon No.2, Cangkuang Kulon, Kec. Dayeuhkolot, Kabupaten Bandung, Jawa Barat 40227, Indonesia",-6.9738139,107.5946204
56,P3204280201,BOJONGSOANG,"Jl. Terusan Buah Batu Ds. Cipagalo, Kec. Bojongsoang",Bandung,,2,"Jl. Terusan Buah Batu Ds. Cipagalo, Kec. Bojongsoang, Bandung, Indonesia","Jl. Terusan Buah Batu, Cipagalo, Kec. Bojongsoang, Kabupaten Bandung, Jawa Barat, Indonesia",-6.9673508,107.6375513
57,P3204290201,CINUNUK,"Jl. Raya Cinunuk No. 209, Ds. Cinunuk, Kec. Cileunyi",Bandung,,2,"Jl. Raya Cinunuk No. 209, Ds. Cinunuk, Kec. Cileunyi, Bandung, Indonesia","Jl. Raya Cinunuk No.209, Cimekar, Kec. Cileunyi, Kabupaten Bandung, Jawa Barat 40623, Indonesia",-6.9386562,107.7350187
58,P3204290202,CILEUNYI,"Jl. Raya Cileunyi Ds. Cileunyi Wetan, Kec. Cileunyi",Bandung,,2,"Jl. Raya Cileunyi Ds. Cileunyi Wetan, Kec. Cileunyi, Bandung, Indonesia","Jl. Raya Cileunyi, Cileunyi Wetan, Kec. Cileunyi, Kabupaten Bandung, Jawa Barat, Indonesia",-6.9398342,107.7535199
59,P3204290203,CIBIRU HILIR,"Ds. Cibiru Hilir, Kec. Cileunyi",Bandung,,2,"Ds. Cibiru Hilir, Kec. Cileunyi, Bandung, Indonesia","Cibiru Hilir, Cileunyi, Bandung Regency, West Java, Indonesia",-6.968032099999999,107.7132895
60,P3204300201,CILENGKRANG,"Komp Pasir Jati Blok D, Ds. Jatiendah, Kec. Cilengkrang",Bandung,,2,"Komp Pasir Jati Blok D, Ds. Jatiendah, Kec. Cilengkrang, Bandung, Indonesia","Blk. D, Jatiendah, Kec. Cilengkrang, Kabupaten Bandung, Jawa Barat 40616, Indonesia",-6.906132,107.6999744
61,P3204310201,CIMENYAN,"Jl. Padasuka Ds. Cimenyan, Kec. Cimenyan",Bandung,,2,"Jl. Padasuka Ds. Cimenyan, Kec. Cimenyan, Bandung, Indonesia","Jl. Padasuka, Kec. Cimenyan, Kabupaten Bandung, Jawa Barat, Indonesia",-6.8884485,107.6603545
62,P3204310202,CIBEUNYING,"Jl. Majalaya, Ds. Cibeunying, Kec. Cimenyan",Bandung,,2,"Jl. Majalaya, Ds. Cibeunying, Kec. Cimenyan, Bandung, Indonesia","Jl. Majalaya 9, Antapani Wetan, Kec. Antapani, Kota Bandung, Jawa Barat 40291, Indonesia",-6.9136898,107.6638337
1,P3205010101,CISEWU DTP,"Jl. Puswakbakti No.13, Ds. Cisewu, Kec. Cisewu",Garut,1.0,1,"Jl. Puswakbakti No.13, Ds. Cisewu, Kec. Cisewu, Garut, Indonesia","Cisewu, Garut Regency, West Java, Indonesia",-7.3615832,107.497265
2,P3205011201,SUKA RAME,"Jl. Rancabuaya, Ds. Purbayani, Kec. Caringin",Garut,1.0,2,"Jl. Rancabuaya, Ds. Purbayani, Kec. Caringin, Garut, Indonesia","Jl. Ranca Buaya, Purbayani, Kec. Caringin, Kabupaten Garut, Jawa Barat, Indonesia",-7.5000389,107.5000681
3,P3205020201,TALEGONG,"Jl. Talegong, Ds. Sukamulya, Kec. Talegong",Garut,1.0,2,"Jl. Talegong, Ds. Sukamulya, Kec. Talegong, Garut, Indonesia","Jl. Raya Talegong, Sukamulya, Kec. Talegong, Kabupaten Garut, Jawa Barat, Indonesia",-7.2883017,107.5269985
4,P3205030101,BUNGBULANG DTP,"Jl. Garuda, Ds. Bungbulang, Kec. Bungbulang",Garut,1.0,1,"Jl. Garuda, Ds. Bungbulang, Kec. Bungbulang, Garut, Indonesia","Jl. Garuda, Bungbulang, Kec. Bungbulang, Kabupaten Garut, Jawa Barat 44165, Indonesia",-7.456006,107.5998837
5,P3205050101,SINDANGRATU DTP,"Jl. Raya Bungbulan Km.65, Ds. Jatiwangi, Kec. Pakenjeng",Garut,1.0,1,"Jl. Raya Bungbulan Km.65, Ds. Jatiwangi, Kec. Pakenjeng, Garut, Indonesia","Jl. Raya Bungbulang, Kec. Pakenjeng, Kabupaten Garut, Jawa Barat, Indonesia",-7.4507684,107.6436
6,P3205031201,MEKARMUKTI,"Jl. Raya Pantai Cijayana, Ds.Mekarmukti, Kec. Mekarmukti",Garut,,2,"Jl. Raya Pantai Cijayana, Ds.Mekarmukti, Kec. Mekarmukti, Garut, Indonesia","Jl. Raya Pantai Cijayana, Mekarmukti, Kec. Mekarmukti, Kabupaten Garut, Jawa Barat, Indonesia",-7.5009318,107.5788327
7,P3205040201,PAMULIHAN,"Jl. Raya Pakenjeng, Ds. Pakenjeng, Kec. Pamulihan",Garut,,2,"Jl. Raya Pakenjeng, Ds. Pakenjeng, Kec. Pamulihan, Garut, Indonesia","Pakenjeng, Pamulihan, Garut Regency, West Java, Indonesia",-7.3737257,107.7103291
8,P3205040202,CISANDAAN,"Jl. Raya Bungbulang, Ds. Pamulihan, Kec. Pamulihan",Garut,,2,"Jl. Raya Bungbulang, Ds. Pamulihan, Kec. Pamulihan, Garut, Indonesia","Jl. Raya Bungbulang KP. DANGDEUR No.DS, JATI WANGI, Kec. Pakenjeng, Kabupaten Garut, Jawa Barat, Indonesia",-7.456045,107.5997796
9,P3205060201,CIKELET,"Jl. Raya Cikelet, Ds. Cikelet, Kec. Cikelet",Garut,1.0,2,"Jl. Raya Cikelet, Ds. Cikelet, Kec. Cikelet, Garut, Indonesia","Jl. Raya Cikelet, Cikelet, Kec. Cikelet, Kabupaten Garut, Jawa Barat 44177, Indonesia",-7.6144502,107.6772682
10,P3205060202,CIMARI,"Ds. Cigadog, Kec. Cikelet",Garut,,2,"Ds. Cigadog, Kec. Cikelet, Garut, Indonesia","Cigadog, Cikelet, Garut Regency, West Java, Indonesia",-7.5783918,107.6570475
11,P3205070101,PEMEUNGPEUK DTP,"Jl. Raya Pameungpeuk No. 21-23, Ds. Mandalakasih, Kec. Pamengpeuk",Garut,1.0,1,"Jl. Raya Pameungpeuk No. 21-23, Ds. Mandalakasih, Kec. Pamengpeuk, Garut, Indonesia","Jl. Raya Pameungpeuk No.21, Paas, Kec. Pameungpeuk, Kabupaten Garut, Jawa Barat 44175, Indonesia",-7.6409831,107.7325797
12,P3205080201,CIBALONG,"Jl. Raya Miramareu, Ds. Karyasari, Kec. Cibalong",Garut,1.0,2,"Jl. Raya Miramareu, Ds. Karyasari, Kec. Cibalong, Garut, Indonesia","Jl. Miramareu, Karyasari, Kec. Cibalong, Kabupaten Garut, Jawa Barat, Indonesia",-7.6748443,107.7834044
13,P3205080202,MAROKO,"Ds. Maroko, Kec. Cibalong",Garut,,2,"Ds. Maroko, Kec. Cibalong, Garut, Indonesia","Maroko, Cibalong, Garut Regency, West Java, Indonesia",-7.6174516,107.902819
14,P3205090201,CISOMPET,"Jl. Raya Cisompet No.74, Ds. Cisompet, Kec. Cisompet",Garut,1.0,2,"Jl. Raya Cisompet No.74, Ds. Cisompet, Kec. Cisompet, Garut, Indonesia","Jl. Raya Cisompet No.74, Cisompet, Kec. Cisompet, Kabupaten Garut, Jawa Barat 44174, Indonesia",-7.548691199999999,107.8127623
15,P3205100201,PEUNDEUY,"Jl. Peundeuy, Ds. Peundeuy, Kec. Peundeuy",Garut,1.0,2,"Jl. Peundeuy, Ds. Peundeuy, Kec. Peundeuy, Garut, Indonesia","Jl. Peundeuy, Kec. Cibalong, Kabupaten Garut, Jawa Barat 44176, Indonesia",-7.603651,107.916284
16,P3205110101,SINGA JAYA DTP,"Jl. Raya Singajaya, Ds. Singajaya, Kec. Singajaya",Garut,1.0,1,"Jl. Raya Singajaya, Ds. Singajaya, Kec. Singajaya, Garut, Indonesia","Singajaya, Kec. Singajaya, Kabupaten Garut, Jawa Barat, Indonesia",-7.4847517,107.8988527
17,P3205111201,CIHURIP,"Jl. Cihurip, Ds. Cihurip, Kec. Cihurip",Garut,,2,"Jl. Cihurip, Ds. Cihurip, Kec. Cihurip, Garut, Indonesia","Cihurip, Kec. Cihurip, Kabupaten Garut, Jawa Barat, Indonesia",-7.4925543,107.8590894
18,P3205120101,CIKAJANG DTP,"Jl. Raya Cihurip, Ds. Cikajang, Kec. Cikajang",Garut,1.0,1,"Jl. Raya Cihurip, Ds. Cikajang, Kec. Cikajang, Garut, Indonesia","Jl. Raya Cihurip, Kec. Cikajang, Kabupaten Garut, Jawa Barat, Indonesia",-7.4788207,107.8342517
19,P3205130201,BANJAR WANGI,"Jl. Raya Banjarwangi, Ds. Banjarwangi, Kec. Banjarwangi",Garut,,2,"Jl. Raya Banjarwangi, Ds. Banjarwangi, Kec. Banjarwangi, Garut, Indonesia","Jl. Raya Banjarwangi, Banjarwangi, Kec. Banjarwangi, Kabupaten Garut, Jawa Barat, Indonesia",-7.4376482,107.9043202
20,P3205140101,CILAWU DTP,"Jl. Raya Garut -Tasik No.73, Ds. Cilawu, Kec. Cilawu",Garut,1.0,1,"Jl. Raya Garut -Tasik No.73, Ds. Cilawu, Kec. Cilawu, Garut, Indonesia","Jl. Garut - Tasikmalaya No.73, Sukamaju, Kec. Cilawu, Kabupaten Garut, Jawa Barat 44181, Indonesia",-7.319356000000001,107.9334822
21,P3205140202,BOJONGLOA,"Jl. Raya Garut- Tasik Km.14, Ds. Sukamaju, Kec. Cilawu",Garut,,2,"Jl. Raya Garut- Tasik Km.14, Ds. Sukamaju, Kec. Cilawu, Garut, Indonesia","Jl. Garut - Tasikmalaya No.KM 14, Sukamaju, Kec. Cilawu, Kabupaten Garut, Jawa Barat 44181, Indonesia",-7.320155999999999,107.9324921
22,P3205150101,BAYONGBONG DTP,"Jl. Simpang No.193, Ds. Mulyasari, Kec. Bayongbong",Garut,1.0,1,"Jl. Simpang No.193, Ds. Mulyasari, Kec. Bayongbong, Garut, Indonesia","Jl. Raya Simpang No.193, Sukaresmi, Kec. Sukaresmi, Kabupaten Garut, Jawa Barat 44163, Indonesia",-7.266462100000001,107.8160862
23,P3205150202,CILIMUS,"Jl. Raya Bayongbong, Ds. Sukarame, Kec. Bayongbong",Garut,,2,"Jl. Raya Bayongbong, Ds. Sukarame, Kec. Bayongbong, Garut, Indonesia","Gg. Mesjid Kp. Babakan Pogor No.Ds, Sirnagalih, Kec. Bayongbong, Kabupaten Garut, Jawa Barat 44162, Indonesia",-7.248923599999999,107.877538
24,P3205151201,SUKAHURIP,"Jl. Raya Ciledug No.23, Ds. Sukahurip, Kec. Cigedug",Garut,,2,"Jl. Raya Ciledug No.23, Ds. Sukahurip, Kec. Cigedug, Garut, Indonesia","Jl. Ciledug No.23, Pakuwon, Kec. Garut Kota, Kabupaten Garut, Jawa Barat 44117, Indonesia",-7.216569,107.9061442
25,P3205160101,CISURUPAN DTP,"Jl. Raya Cisurupan No. 27, Ds. Balewangi, Kec. Cisurupan",Garut,1.0,1,"Jl. Raya Cisurupan No. 27, Ds. Balewangi, Kec. Cisurupan, Garut, Indonesia","Jalur Kereta Api Garut - Cikajang No.27, RW.2, Cisurupan, Kec. Cisurupan, Kabupaten Garut, Jawa Barat 44163, Indonesia",-7.3095348,107.7934055
26,P3205160202,PAKUWON,"Ds. Pakuwon, Kec. Cisurupan",Garut,,2,"Ds. Pakuwon, Kec. Cisurupan, Garut, Indonesia","Garut, Garut Kota, Garut Regency, West Java, Indonesia",-7.2157251,107.901989
27,P3205161201,SUKAMULYA,"Jl. Sukamulya, Ds. Sukamulya, Kec. Sukaresmi",Garut,1.0,2,"Jl. Sukamulya, Ds. Sukamulya, Kec. Sukaresmi, Garut, Indonesia","Sukamulya, Sukaresmi, Garut Regency, West Java, Indonesia",-7.2587037,107.8021158
28,P3205170201,SAMARANG,"Jl. Raya Samarang No.85, Ds. Samarang, Kec. Samarang",Garut,,2,"Jl. Raya Samarang No.85, Ds. Samarang, Kec. Samarang, Garut, Indonesia","Jl. Raya Samarang No.85, Samarang, Kec. Samarang, Kabupaten Garut, Jawa Barat 44161, Indonesia",-7.2208283,107.8379593
29,P3205170202,SUKAKARYA,Kec. Samarang,Garut,,2,"Kec. Samarang, Garut, Indonesia","Samarang, Garut Regency, West Java, Indonesia",-7.218311199999999,107.8412619
30,P3205171201,PADAWAAS,"Jl. Raya Pasirwangi, Ds. Padawaas, Kec. Pasirwangi",Garut,,2,"Jl. Raya Pasirwangi, Ds. Padawaas, Kec. Pasirwangi, Garut, Indonesia","Jl. Raya Pasirwangi, Pasirwangi, Kec. Pasirwangi, Kabupaten Garut, Jawa Barat 44161, Indonesia",-7.2157305,107.7838488
31,P3205171202,GADOG,"Jl. Raya Pasirwangi, Ds. Sirnajaya, Kec. Pasirwangi",Garut,,2,"Jl. Raya Pasirwangi, Ds. Sirnajaya, Kec. Pasirwangi, Garut, Indonesia","Jl. Raya Pasirwangi, Pasirwangi, Kec. Pasirwangi, Kabupaten Garut, Jawa Barat 44161, Indonesia",-7.2157305,107.7838488
32,P3205181201,HAUR PANGGUNG,"Jl. Guntur Melati, Ds. Haur Panggung, Kec. Tarogong Kidul",Garut,,2,"Jl. Guntur Melati, Ds. Haur Panggung, Kec. Tarogong Kidul, Garut, Indonesia","Jl. Guntur Melati, Haurpanggung, Kec. Tarogong Kidul, Kabupaten Garut, Jawa Barat 44151, Indonesia",-7.2008511,107.9053978
33,P3205181202,KERSAMENAK,"Jl. Raya Cikamiri, Ds. Kersamenak, Kec. Tarogong Kidul",Garut,,2,"Jl. Raya Cikamiri, Ds. Kersamenak, Kec. Tarogong Kidul, Garut, Indonesia","Jl. Cikamiri, Kersamenak, Kec. Tarogong Kidul, Kabupaten Garut, Jawa Barat, Indonesia",-7.2344744,107.8634363
34,P3205181203,PEMBANGUNAN,"Jl. Pembangunan No.216, Ds. Sukagalih, Kec. Tarogong Kidul",Garut,,2,"Jl. Pembangunan No.216, Ds. Sukagalih, Kec. Tarogong Kidul, Garut, Indonesia","Jl. Pembangunan No.216, Sukagalih, Kec. Tarogong Kidul, Kabupaten Garut, Jawa Barat 44151, Indonesia",-7.205573999999999,107.8872997
35,P3205182201,CIPANAS,"Ds. Rancabango, Kec. Tarogong Kaler",Garut,,2,"Ds. Rancabango, Kec. Tarogong Kaler, Garut, Indonesia","Puri Dinar Lestari No.5 Blok G, Tj. Kamuning, Kec. Tarogong Kaler, Kabupaten Garut, Jawa Barat 44151, Indonesia",-7.161906999999999,107.9019057
36,P3205182102,TAROGONG DTP,"Jl. Suherman No.3, Ds. Tarogong, Kec. Tarogong Kaler",Garut,1.0,1,"Jl. Suherman No.3, Ds. Tarogong, Kec. Tarogong Kaler, Garut, Indonesia","Jl. Suherman Kp Pasir Pogor No.3, Jati, Kec. Tarogong Kaler, Kabupaten Garut, Jawa Barat 44151, Indonesia",-7.190262600000001,107.896909
37,P3205182203,MEKARWANGI,"Jl. Raya Samarang No.218, Ds. Mekarwangi, Kec. Tarogong Kaler",Garut,,2,"Jl. Raya Samarang No.218, Ds. Mekarwangi, Kec. Tarogong Kaler, Garut, Indonesia","Jl. Raya Samarang No.218, Mekarwangi, Kec. Tarogong Kaler, Kabupaten Garut, Jawa Barat 44151, Indonesia",-7.212150400000001,107.8473507
38,P3205190201,SILIWANGI,"Jl. Siliwangi No.13, Ds. Paminggir, Kec. Garut Kota",Garut,,2,"Jl. Siliwangi No.13, Ds. Paminggir, Kec. Garut Kota, Garut, Indonesia","Jl. Siliwangi No.13, Regol, Kec. Garut Kota, Kabupaten Garut, Jawa Barat 44114, Indonesia",-7.216807900000001,107.9033514
39,P3205190202,GUNTUR,"Jl. Guntur No.234,Ds. Sukamantri , Kec. Garut Kota",Garut,,2,"Jl. Guntur No.234,Ds. Sukamantri , Kec. Garut Kota, Garut, Indonesia","Jl. Guntur No.234, Kota Wetan, Kec. Garut Kota, Kabupaten Garut, Jawa Barat 44111, Indonesia",-7.214786099999999,107.9138899
40,P3205190203,PASUNDAN,"Jl. Pasundan No.104, Ds. Cimuncang, Kec. Garut Kota",Garut,,2,"Jl. Pasundan No.104, Ds. Cimuncang, Kec. Garut Kota, Garut, Indonesia","Jl. Pasundan No.104, Kota Kulon, Kec. Garut Kota, Kabupaten Garut, Jawa Barat 44112, Indonesia",-7.2275485,107.9057757
41,P3205200201,KARANGPAWITAN,"Jl. Raya Karangpawitan, Ds. Karangpawitan, Kec. Karangpawitan",Garut,,2,"Jl. Raya Karangpawitan, Ds. Karangpawitan, Kec. Karangpawitan, Garut, Indonesia","Jl. Karangpawitan, Kec. Karangpawitan, Kabupaten Garut, Jawa Barat 44182, Indonesia",-7.2076933,107.9452858
42,P3205200202,KARANGMULYA,"Jl. Cibangban, Ds. Jatisari, Kec. Karangpawitan",Garut,,2,"Jl. Cibangban, Ds. Jatisari, Kec. Karangpawitan, Garut, Indonesia","Jl. Cibangban, Kec. Karangpawitan, Kabupaten Garut, Jawa Barat 44182, Indonesia",-7.2119139,107.9313874
43,P3205200203,CEMPAKA,"Ds. Lebakjaya, Kec. Karangpawitan",Garut,,2,"Ds. Lebakjaya, Kec. Karangpawitan, Garut, Indonesia","Lebakjaya, Karangpawitan, Garut Regency, West Java, Indonesia",-7.226930500000001,107.9331848
44,P3205210101,WANARAJA DTP,"Jl. Raya Wanaraja No.30, Ds. Wanaraja, Kec. Wanaraja",Garut,,1,"Jl. Raya Wanaraja No.30, Ds. Wanaraja, Kec. Wanaraja, Garut, Indonesia","Jl. Raya Wanaraja No.30, Kec. Wanaraja, Kabupaten Garut, Jawa Barat 44183, Indonesia",-7.1779978,107.9787814
45,P3205211201,GARAWANGSA,"Ds. Sukaratu, Kec. Sucinaraja",Garut,1.0,2,"Ds. Sukaratu, Kec. Sucinaraja, Garut, Indonesia","Sukaratu, Sucinaraja, Garut Regency, West Java, Indonesia",-7.1980434,107.993185
46,P3205212201,CIMARAGAS,"Jl. Raya Cibatu, Ds. Cimaragas, Kec. Pangatikan",Garut,,2,"Jl. Raya Cibatu, Ds. Cimaragas, Kec. Pangatikan, Garut, Indonesia","Jl. Cibatu, Cimaragas, Kec. Pangatikan, Kabupaten Garut, Jawa Barat, Indonesia",-7.1578549,107.9934787
47,P3205220201,SUKAWENING,"Jl. Sukawening No.18, Ds. Pasanggrahan, Kec. Sukawening",Garut,,2,"Jl. Sukawening No.18, Ds. Pasanggrahan, Kec. Sukawening, Garut, Indonesia","Raya Sukawening No.18, Pasanggrahan, Kec. Sukawening, Kabupaten Garut, Jawa Barat 44184, Indonesia",-7.1604654,108.0074176
48,P3205220202,SUKA MUKTI,"Jl. Raya Sukamukti, Ds. Sukamukti, Kec. Sukawening",Garut,,2,"Jl. Raya Sukamukti, Ds. Sukamukti, Kec. Sukawening, Garut, Indonesia","Sukamukti, Sukawening, Garut Regency, West Java, Indonesia",-7.158269499999999,108.0198557
49,P3205220203,MARIPARI,"Jl. Raya Cibatu Km. 4,5,  Ds. Maripari, Kec. Sukawening",Garut,1.0,2,"Jl. Raya Cibatu Km. 4,5,  Ds. Maripari, Kec. Sukawening, Garut, Indonesia","Jl. Raya Cihuni Cibatu, Maripari, Kec. Sukawening, Kabupaten Garut, Jawa Barat, Indonesia",-7.1391886,107.9892017
50,P3205221201,KARANGTENGAH,"Jl. Raya Cintamanik, Ds. Karangtengah,Kec. Karangtengah",Garut,,2,"Jl. Raya Cintamanik, Ds. Karangtengah,Kec. Karangtengah, Garut, Indonesia","Cintamanik, Karangtengah, Garut Regency, West Java, Indonesia",-7.1498547,108.0687579
51,P3205230201,SUKA SENANG,"Jl. H. Hasan Arif, Ds. Sukasenang, Kec. Banyuresmi",Garut,,2,"Jl. H. Hasan Arif, Ds. Sukasenang, Kec. Banyuresmi, Garut, Indonesia","warung, Jl. H. Hasan Arif No.ds, Sukasenang, Kec. Banyuresmi, Kabupaten Garut, Jawa Barat 44191, Indonesia",-7.180202599999999,107.9299564
52,P3205230202,BAGENDIT,"Ds. Sukamukti, Kec. Banyuresmi",Garut,1.0,2,"Ds. Sukamukti, Kec. Banyuresmi, Garut, Indonesia","Sukamukti, Banyuresmi, Garut Regency, West Java, Indonesia",-7.159019,107.9368882
53,P3205230203,SUKARAJA,"Jl. Raya Warung Peuteuy, Ds. Sukaraja, Kec. Banyuresmi",Garut,,2,"Jl. Raya Warung Peuteuy, Ds. Sukaraja, Kec. Banyuresmi, Garut, Indonesia","Jl. Wr. Peuteuy, Sukaraja, Kec. Banyuresmi, Kabupaten Garut, Jawa Barat, Indonesia",-7.1473506,107.8990384
54,P3205240101,LELES DTP,"Jl. Pramuka No. 4, Ds. Leles, Kec. Leles",Garut,,1,"Jl. Pramuka No. 4, Ds. Leles, Kec. Leles, Garut, Indonesia","Jl. Pramuka No.4, Leles, Kec. Leles, Kabupaten Garut, Jawa Barat 44152, Indonesia",-7.1091224,107.8987549
55,P3205240202,LEMBANG,"Ds. Lembang, Kec. Leles",Garut,1.0,2,"Ds. Lembang, Kec. Leles, Garut, Indonesia","Lembang, Leles, Garut Regency, West Java, Indonesia",-7.117117599999999,107.8554249
56,P3205250201,LEUWIGOONG,"Jl. Raya Leuwigoong No.4, Ds. Lewigoong, Kec. Lewigoong",Garut,,2,"Jl. Raya Leuwigoong No.4, Ds. Lewigoong, Kec. Lewigoong, Garut, Indonesia","Jl. Raya Leuwigoong No.4, Cibiuk Kaler, Kec. Cibiuk, Kabupaten Garut, Jawa Barat 44193, Indonesia",-7.0667519,107.96332
57,P3205260101,CIBATU DTP,"Jl. Ki Hajardewantoro No.10, Ds. Cibatu, Kec. Cibatu",Garut,1.0,1,"Jl. Ki Hajardewantoro No.10, Ds. Cibatu, Kec. Cibatu, Garut, Indonesia","Jl. Ki Hajar Dewantara No.10, Keresek, Kec. Cibatu, Kabupaten Garut, Jawa Barat 44185, Indonesia",-7.0968028,107.9841551
58,P3205261201,SUKAMERANG,"Jl. Sukamerang, Ds. Sukamerang, Kec. Kersamanah",Garut,,2,"Jl. Sukamerang, Ds. Sukamerang, Kec. Kersamanah, Garut, Indonesia","Jl. Raya Sukamerang, Sukamerang, Kec. Kersamanah, Kabupaten Garut, Jawa Barat, Indonesia",-7.0557206,108.0089491
59,P3205270201,CIBIUK,"Jl. Raya Leuwigoong, Ds. Cibiuk, Kec. Cibiuk",Garut,,2,"Jl. Raya Leuwigoong, Ds. Cibiuk, Kec. Cibiuk, Garut, Indonesia","Jl. Raya Leuwigoong, Kec. Cibiuk, Kabupaten Garut, Jawa Barat, Indonesia",-7.0642934,107.9639199
60,P3205280201,RANCASALAK,"Jl. Raya Rancasalak - Kadungora, Ds. Mandalasari, Kec. Kadungora",Garut,,2,"Jl. Raya Rancasalak - Kadungora, Ds. Mandalasari, Kec. Kadungora, Garut, Indonesia","Jl. Raya Rancasalak, Mandalasari, Kec. Kadungora, Kabupaten Garut, Jawa Barat, Indonesia",-7.0832979,107.8799282
61,P3205280202,KADUNGORA,"Jl. Raya Kadungora, Ds. Kadungora, Kec. Kadungora",Garut,,2,"Jl. Raya Kadungora, Ds. Kadungora, Kec. Kadungora, Garut, Indonesia","Jl. Raya Kadungora, Kec. Kadungora, Kabupaten Garut, Jawa Barat, Indonesia",-7.0846395,107.898608
62,P3205290101,BALUBUR LIMBANGAN D,"Jl. Raya Limbangan No.119, Ds. Limbangan Tengah, Kec. Blubur Limbangan",Garut,1.0,1,"Jl. Raya Limbangan No.119, Ds. Limbangan Tengah, Kec. Blubur Limbangan, Garut, Indonesia","Jl. Raya Limbangan No.119, Limbangan Tengah, Kec. Balubur Limbangan, Kabupaten Garut, Jawa Barat 44186, Indonesia",-7.0372849,107.9774014
63,P3205300201,SELAAWI,"Jl. Raya Selaawi No.49,Ds. Selaawi, Kec. Selaawi",Garut,1.0,2,"Jl. Raya Selaawi No.49,Ds. Selaawi, Kec. Selaawi, Garut, Indonesia","Jl. Selaawi No.49, Selaawi, Kec. Selaawi, Kabupaten Garut, Jawa Barat 44187, Indonesia",-7.0041478,108.0227497
64,P3205310101,MALANGBONG DTP,"Jl. Raya Malangbong, Ds. Malangbong, Kec. Malangbong",Garut,1.0,1,"Jl. Raya Malangbong, Ds. Malangbong, Kec. Malangbong, Garut, Indonesia","Jl. Raya Malangbong, Malangbong, Kec. Malangbong, Kabupaten Garut, Jawa Barat, Indonesia",-7.061878,108.086985
65,P3205310202,CITERAS,"Jl. Raya Malangbong Km.5, Ds. Bunisari, Kec. Malangbong",Garut,,2,"Jl. Raya Malangbong Km.5, Ds. Bunisari, Kec. Malangbong, Garut, Indonesia","Jl. Raya Malangbong, Bunisari, Kec. Malangbong, Kabupaten Garut, Jawa Barat, Indonesia",-7.0579749,108.0590853
1,P3206010101,CIPATUJAH,"Jl. Raya Cipatujah 123, Kec. Cipatujah",Tasikmalaya,1.0,1,"Jl. Raya Cipatujah 123, Kec. Cipatujah, Tasikmalaya, Indonesia","7289+6P7, Jl. Raya Cipatujah No.123, Cipatujah, Kec. Cipatujah, Kabupaten Tasikmalaya, Jawa Barat 46189, Indonesia",-7.734471499999999,108.0192361
2,P3206020101,KARANG NUNGGAL,"Ds. Karangnunggal No. 12, Kec. Karangnunggal",Tasikmalaya,1.0,1,"Ds. Karangnunggal No. 12, Kec. Karangnunggal, Tasikmalaya, Indonesia","Karangnunggal - Cipatujah No.12, Karangnunggal, Kec. Karangnunggal, Kabupaten Tasikmalaya, Jawa Barat 46186, Indonesia",-7.631289199999999,108.1141195
3,P3206030101,CIKALONG,"Ds. Cikalong, Kec. Cikalong",Tasikmalaya,1.0,1,"Ds. Cikalong, Kec. Cikalong, Tasikmalaya, Indonesia","Cikalong, Kec. Cikalong, Kabupaten Tasikmalaya, Jawa Barat 46195, Indonesia",-7.7926261,108.2116501
5,P3206040201,PANCATENGAH,"Jl. Raya Pancatengah, Kec. Panca Tengah",Tasikmalaya,1.0,2,"Jl. Raya Pancatengah, Kec. Panca Tengah, Tasikmalaya, Indonesia","Jl. Pancatengah Raya, Kec. Pancatengah, Kabupaten Tasikmalaya, Jawa Barat 46194, Indonesia",-7.6929772,108.2667585
11,P3206050101,CIKATOMAS,"Ds. Cikatomas, Kec. Cikatomas",Tasikmalaya,1.0,1,"Ds. Cikatomas, Kec. Cikatomas, Tasikmalaya, Indonesia","Cikatomas, Kec. Cikatomas, Kabupaten Tasikmalaya, Jawa Barat, Indonesia",-7.6338261,108.2375801
13,P3206060201,CIBALONG,"Ds. Cibalong, Kec. Cibalong",Tasikmalaya,,2,"Ds. Cibalong, Kec. Cibalong, Tasikmalaya, Indonesia","Cibalong, Girikencana, Kec. Parungponteng, Kabupaten Tasikmalaya, Jawa Barat, Indonesia",-7.516667,108.166667
17,P3206061201,PARUNGPONTENG,"Ds. Parungponteng, Kec. Parung Ponteng",Tasikmalaya,,2,"Ds. Parungponteng, Kec. Parung Ponteng, Tasikmalaya, Indonesia","Parungponteng, Tasikmalaya Regency, West Java, Indonesia",-7.5062362,108.147686
21,P3206070201,BANTARKALONG,"Ds. Simpang, Kec. Bantar Kalong",Tasikmalaya,1.0,2,"Ds. Simpang, Kec. Bantar Kalong, Tasikmalaya, Indonesia","Simpang, Bantarkalong, Tasikmalaya Regency, West Java, Indonesia",-7.6296217,108.104328
24,P3206071101,BOJONGASIH,"Ds. Bojongasih, Kec. Bojong Asih",Tasikmalaya,1.0,1,"Ds. Bojongasih, Kec. Bojong Asih, Tasikmalaya, Indonesia","Bojongasih, Tasikmalaya Regency, West Java, Indonesia",-7.5761879,108.1399022
36,P3206072201,CULAMEGA,"Ds. Culamega, Kec. Culamega",Tasikmalaya,,2,"Ds. Culamega, Kec. Culamega, Tasikmalaya, Indonesia","Culamega, Tasikmalaya Regency, West Java, Indonesia",-7.595910099999998,108.0589354
37,P3206080201,BOJONGGAMBIR,"Ds. Bojonggambir, Kec. Bojonggambir",Tasikmalaya,,2,"Ds. Bojonggambir, Kec. Bojonggambir, Tasikmalaya, Indonesia","Purwaraharja, Bojonggambir, Tasikmalaya Regency, West Java 46475, Indonesia",-7.484175199999999,107.985777
4,P3206090201,SODONGHILIR,"Ds. Sodonghilir, Kec. Sodonghilir",Tasikmalaya,,2,"Ds. Sodonghilir, Kec. Sodonghilir, Tasikmalaya, Indonesia","Sodonghilir, Tasikmalaya Regency, West Java 46473, Indonesia",-7.4915539,108.0569021
6,P3206100101,TARAJU,"Jl. Raya Taraju Rt 006/01, Kec. Taraju",Tasikmalaya,1.0,1,"Jl. Raya Taraju Rt 006/01, Kec. Taraju, Tasikmalaya, Indonesia","Jl. Raya Taraju, Cikubang, Kec. Taraju, Kabupaten Tasikmalaya, Jawa Barat 46474, Indonesia",-7.4479226,108.0285385
7,P3206110201,SALAWU,"Jl. Raya Salawu 118, Kec. Salawu",Tasikmalaya,,2,"Jl. Raya Salawu 118, Kec. Salawu, Tasikmalaya, Indonesia","Jl. Raya Salawu No.118, Margalaksana, Kec. Salawu, Kabupaten Tasikmalaya, Jawa Barat 46471, Indonesia",-7.3769848,108.0377658
8,P3206111201,PUSPAHIANG,"Jl. Raya Puspahiang 7, Kec. Puspahiang",Tasikmalaya,1.0,2,"Jl. Raya Puspahiang 7, Kec. Puspahiang, Tasikmalaya, Indonesia","Jl Raya Puspahiang No.7, Puspahiang, Kec. Puspahiang, Kabupaten Tasikmalaya, Jawa Barat 46471, Indonesia",-7.414506899999999,108.0494139
9,P3206120201,TANJUNGJAYA,"Ds. Cibalanarik, Kec. Tanjung Jaya",Tasikmalaya,,2,"Ds. Cibalanarik, Kec. Tanjung Jaya, Tasikmalaya, Indonesia","Cibalanarik, Tanjungjaya, Tasikmalaya Regency, West Java, Indonesia",-7.4049526,108.1458316
10,P3206130101,SUKARAJA,"Ds. Sukaraja, Kec. Sukaraja",Tasikmalaya,1.0,1,"Ds. Sukaraja, Kec. Sukaraja, Tasikmalaya, Indonesia","Raya Sukaraja, Kec. Sukaraja, Kabupaten Tasikmalaya, Jawa Barat, Indonesia",-7.475609,108.195756
12,P3206140201,SALOPA,"Jl. Raya Salopa 226, Kec. Salopa",Tasikmalaya,,2,"Jl. Raya Salopa 226, Kec. Salopa, Tasikmalaya, Indonesia","Jl. Raya Salopa No.226, Kawitan, Kec. Salopa, Kabupaten Tasikmalaya, Jawa Barat 46192, Indonesia",-7.5159065,108.2724176
14,P3206141201,JATIWARAS,"Ds. Jatiwaras, Kec. Jatiwaras",Tasikmalaya,,2,"Ds. Jatiwaras, Kec. Jatiwaras, Tasikmalaya, Indonesia","Jatiwaras, Tasikmalaya Regency, West Java, Indonesia",-7.4845259,108.2229243
15,P3206150201,CINEAM,"Ds. Cineam, Kec. Cineam",Tasikmalaya,1.0,2,"Ds. Cineam, Kec. Cineam, Tasikmalaya, Indonesia","Cineam, Tasikmalaya Regency, West Java, Indonesia",-7.398918699999999,108.350464
16,P3206160101,MANONJAYA,"Jl. Perumahan 6, Kec. Manonjaya",Tasikmalaya,1.0,1,"Jl. Perumahan 6, Kec. Manonjaya, Tasikmalaya, Indonesia","Manonjaya, Tasikmalaya Regency, West Java, Indonesia",-7.351134699999999,108.3087658
18,P3206161201,GUNUNGTANJUNG,"Ds. Gunungtanjung, Kec. Gunungtanjung",Tasikmalaya,,2,"Ds. Gunungtanjung, Kec. Gunungtanjung, Tasikmalaya, Indonesia","Gunungtanjung, Tasikmalaya Regency, West Java, Indonesia",-7.409309500000001,108.2881709
19,P3206190201,SINGAPARNA,"Ds. Singaparna, Kec. Singaparna",Tasikmalaya,,2,"Ds. Singaparna, Kec. Singaparna, Tasikmalaya, Indonesia","Singaparna, Tasikmalaya Regency, West Java, Indonesia",-7.350303,108.1253899
20,P3206190102,TINEWATI,"Jl. Raya Singaparna, Kec. Singaparna",Tasikmalaya,1.0,1,"Jl. Raya Singaparna, Kec. Singaparna, Tasikmalaya, Indonesia","Jl. Raya Singaparna, Kec. Singaparna, Kabupaten Tasikmalaya, Jawa Barat, Indonesia",-7.3454591,108.1333671
22,P3206191101,SUKARAME,"Ds. Sukarame, Kec. Sukarame",Tasikmalaya,,1,"Ds. Sukarame, Kec. Sukarame, Tasikmalaya, Indonesia","Sukarame, Tasikmalaya Regency, West Java, Indonesia",-7.3588922,108.1339729
23,P3206192201,MANGUNREJA,"Ds. Mangunreja, Kec. Mangunreja",Tasikmalaya,,2,"Ds. Mangunreja, Kec. Mangunreja, Tasikmalaya, Indonesia","Mangunreja, Tasikmalaya Regency, West Java, Indonesia",-7.370715899999999,108.0983994
25,P3206200101,CIGALONTANG,"Ds. Cigalontang, Kec. Cigalontang",Tasikmalaya,,1,"Ds. Cigalontang, Kec. Cigalontang, Tasikmalaya, Indonesia","Cigalontang, Puspamukti, Cigalontang, Tasikmalaya Regency, West Java, Indonesia",-7.35,108.016667
26,P3206210201,LEUWI SARI,"Ds. Leuwisari, Kec. Leuwisari",Tasikmalaya,,2,"Ds. Leuwisari, Kec. Leuwisari, Tasikmalaya, Indonesia","Jayamukti, Leuwisari, Tasikmalaya Regency, West Java 46464, Indonesia",-7.318761800000001,108.104328
27,P3206210202,KARANGJAYA,"Ds. Sirnajaya, Kec. Leuwisari",Tasikmalaya,,2,"Ds. Sirnajaya, Kec. Leuwisari, Tasikmalaya, Indonesia","Leuwisari, Tasikmalaya Regency, West Java, Indonesia",-7.317330699999999,108.0810962
28,P3206211201,SARIWANGI,"Ds. Sariwangi, Kec. Sariwangi",Tasikmalaya,,2,"Ds. Sariwangi, Kec. Sariwangi, Tasikmalaya, Indonesia","Sariwangi, Tasikmalaya Regency, West Java, Indonesia",-7.326264,108.0791321
29,P3206212201,CISARUNI,"Jl. Kantor Pos, Kec. Padakembang",Tasikmalaya,,2,"Jl. Kantor Pos, Kec. Padakembang, Tasikmalaya, Indonesia","Jl. Ktr. Pos, Kec. Singaparna, Kabupaten Tasikmalaya, Jawa Barat, Indonesia",-7.3490408,108.1089728
30,P3206221101,SUKARATU,"Ds. Sukaratu, Kec. Sukaratu",Tasikmalaya,1.0,1,"Ds. Sukaratu, Kec. Sukaratu, Tasikmalaya, Indonesia","Sukaratu, Tasikmalaya Regency, West Java, Indonesia",-7.266121999999999,108.1280437
31,P3206230201,CISAYONG,"Ds. Cisayong, Kec. Cisayong",Tasikmalaya,,2,"Ds. Cisayong, Kec. Cisayong, Tasikmalaya, Indonesia","Cisayong, Tasikmalaya Regency, West Java, Indonesia",-7.259984199999999,108.1517612
32,P3206231201,SUKAHENING,"Ds. Sukahening, Kec. Sukahening",Tasikmalaya,1.0,2,"Ds. Sukahening, Kec. Sukahening, Tasikmalaya, Indonesia","Sukahening, Tasikmalaya Regency, West Java, Indonesia",-7.208618899999999,108.1458316
33,P3206240101,RAJAPOLAH,"Ds. Rajapolah, Kec. Rajapolah",Tasikmalaya,1.0,1,"Ds. Rajapolah, Kec. Rajapolah, Tasikmalaya, Indonesia","Rajapolah, Tasikmalaya Regency, West Java, Indonesia",-7.2237487,108.1858582
34,P3206250101,JAMANIS,"Ds. Jamanis, Kec. Jamanis",Tasikmalaya,,1,"Ds. Jamanis, Kec. Jamanis, Tasikmalaya, Indonesia","R55G+H49, Sindangraja, Jamanis, Tasikmalaya Regency, West Java 46175, Indonesia",-7.191089600000001,108.1753701
35,P3206260101,CIAWI,"Jl. Panumbangan, Kec. Ciawi",Tasikmalaya,1.0,1,"Jl. Panumbangan, Kec. Ciawi, Tasikmalaya, Indonesia","Jl. Raya Panumbangan, Kec. Ciawi, Kabupaten Tasikmalaya, Jawa Barat, Indonesia",-7.1573645,108.1561508
38,P3206261201,KADIPATEN,"Pos Ciawi 46156, Kec. Kadipaten",Tasikmalaya,,2,"Pos Ciawi 46156, Kec. Kadipaten, Tasikmalaya, Indonesia","Ciawi, Tasikmalaya Regency, West Java, Indonesia",-7.161097799999999,108.1413845
39,P3206270201,PAGERAGEUNG,"Tanjaknangsi 18, Kec. Pagerageung",Tasikmalaya,1.0,2,"Tanjaknangsi 18, Kec. Pagerageung, Tasikmalaya, Indonesia","V5Q7+3XP, Pagerageung, Tasikmalaya Regency, West Java 46158, Indonesia",-7.112278099999999,108.1649523
40,P3206271201,SUKARESIK,"Ds. Sukaresik, Kec. Sukaresik",Tasikmalaya,1.0,2,"Ds. Sukaresik, Kec. Sukaresik, Tasikmalaya, Indonesia","Sukaresik, Tasikmalaya Regency, West Java, Indonesia",-7.1643268,108.1888233
1,P3207010201,CIMERAK,"Jl. Raya Sindangsari No. 36 Rt. 04 Rw.02 Ds. Sukajaya, Kec. Cimerak",Ciamis,1.0,2,"Jl. Raya Sindangsari No. 36 Rt. 04 Rw.02 Ds. Sukajaya, Kec. Cimerak, Ciamis, Indonesia","Jl. Sindangsari No.36, Sukajaya, Kec. Cimerak, Kab. Pangandaran, Jawa Barat 46395, Indonesia",-7.7344506,108.3810017
2,P3207010202,LEGOKJAWA,"Jl. Raya Legokjawa Ds. Legokjawa, Kec. Cimerak",Ciamis,,2,"Jl. Raya Legokjawa Ds. Legokjawa, Kec. Cimerak, Ciamis, Indonesia","Legokjawa, Cimerak, Pangandaran Regency, West Java, Indonesia",-7.810539599999999,108.4216702
3,P3207020101,CIJULANG,"Jl. Pasundan No.42 Rt. 02 Rw. 08, Kec. Cijulang",Ciamis,1.0,1,"Jl. Pasundan No.42 Rt. 02 Rw. 08, Kec. Cijulang, Ciamis, Indonesia","Jl. Pasundan No.42, Cijulang, Kec. Cijulang, Kab. Pangandaran, Jawa Barat 46394, Indonesia",-7.729373799999999,108.4720357
4,P3207030201,CIGUGUR,"Jl. Raya Jurago No. 407 Rt 01 Rw. 01 Ds. Cigugur, Kec. Cigugur",Ciamis,,2,"Jl. Raya Jurago No. 407 Rt 01 Rw. 01 Ds. Cigugur, Kec. Cigugur, Ciamis, Indonesia","Jl. Jurago No.407, Cigugur, Kab. Pangandaran, Jawa Barat 46392, Indonesia",-7.632775499999999,108.4163784
5,P3207040201,LANGKAPLANCAR,"Jl. Raya Bangunjaya, Kec. Langkaplancar",Ciamis,,2,"Jl. Raya Bangunjaya, Kec. Langkaplancar, Ciamis, Indonesia","Bangunjaya, Langkaplancar, Pangandaran Regency, West Java, Indonesia",-7.533344700000001,108.4127686
6,P3207050101,PARIGI,"Jl. Raya Cijulang No.143 Rt.01 Rw. 01 Ds. Parigi, Kec. Parigi",Ciamis,1.0,1,"Jl. Raya Cijulang No.143 Rt.01 Rw. 01 Ds. Parigi, Kec. Parigi, Ciamis, Indonesia","Jl. Raya Cijulang No.143, Parigi, Kec. Parigi, Kab. Pangandaran, Jawa Barat 46393, Indonesia",-7.704104500000001,108.4933956
7,P3207050202,SELASARI,"Jl. Raya Selasari Rt.05 Rw. 02 Ds. Selasari, Kec. Parigi",Ciamis,,2,"Jl. Raya Selasari Rt.05 Rw. 02 Ds. Selasari, Kec. Parigi, Ciamis, Indonesia","Jl. Raya Selasari, Selasari, Kec. Parigi, Kab. Pangandaran, Jawa Barat 46393, Indonesia",-7.6220442,108.5194053
8,P3207060201,CIKEMBULAN,"Jl. Raya Cijulang No. 93 Rt. 01 Rw 7 Ds. Cikembulan, Kec. Sidamulih",Ciamis,,2,"Jl. Raya Cijulang No. 93 Rt. 01 Rw 7 Ds. Cikembulan, Kec. Sidamulih, Ciamis, Indonesia","Jl. Raya Cijulang No.93, RT.001, Wonoharjo, Kec. Pangandaran, Kab. Pangandaran, Jawa Barat 46396, Indonesia",-7.6772255,108.62972
9,P3207060202,SIDAMULIH,"Jl. Karangsari No. 139 Rt. 01 RW 01 Ds. Sidamulih, Kec. Sidamulih",Ciamis,1.0,2,"Jl. Karangsari No. 139 Rt. 01 RW 01 Ds. Sidamulih, Kec. Sidamulih, Ciamis, Indonesia","Jl. Karangsari No.139, Sidamulih, Kec. Sidamulih, Kab. Pangandaran, Jawa Barat 46365, Indonesia",-7.6434343,108.6087875
10,P3207070101,PANGANDARAN,"Jl. Prapatan No. 11 Rt. 05 Rw. 08 Ds. Pangandaran, Kec. Pangandaran",Ciamis,1.0,1,"Jl. Prapatan No. 11 Rt. 05 Rw. 08 Ds. Pangandaran, Kec. Pangandaran, Ciamis, Indonesia","Pangandaran, Pananjung, Pangandaran, Pangandaran Regency, West Java, Indonesia",-7.683332999999999,108.65
11,P3207080101,KALIPUCANG,"Jl. Raya Kalipucang No.427 Rt.01 Rw.05 Ds.Kalipucang,Kec.Kalipucang",Ciamis,1.0,1,"Jl. Raya Kalipucang No.427 Rt.01 Rw.05 Ds.Kalipucang,Kec.Kalipucang, Ciamis, Indonesia","Jl. Raya Kalipucang No.427, Kalipucang, Kec. Kalipucang, Kab. Pangandaran, Jawa Barat 46397, Indonesia",-7.6496177,108.7535505
12,P3207090101,PADAHERANG,"Jl. Babakan Pikiran rakyat No. 2 Rt 01 Rw. 01, Kec. Padaherang",Ciamis,,1,"Jl. Babakan Pikiran rakyat No. 2 Rt 01 Rw. 01, Kec. Padaherang, Ciamis, Indonesia","Padaherang, Pangandaran Regency, West Java, Indonesia",-7.543898899999999,108.6930549
13,P3207090202,SINDANGWANGI,"Jl. Raya Pangandaran No.753 Rt.01 Rw 01 Ds.Sd Wg, Kec. Padaherang",Ciamis,1.0,2,"Jl. Raya Pangandaran No.753 Rt.01 Rw 01 Ds.Sd Wg, Kec. Padaherang, Ciamis, Indonesia","Jl. Raya Banjar - Pangandaran No.753, Kalipucang, Kec. Kalipucang, Kab. Pangandaran, Jawa Barat 46397, Indonesia",-7.6453352,108.7526916
14,P3207091101,MANGUNJAYA,"Jl. Raya Mangunjaya Rt. 23 Rw. 04 Ds. Mangunjaya, Kec. Mangunjaya",Ciamis,1.0,1,"Jl. Raya Mangunjaya Rt. 23 Rw. 04 Ds. Mangunjaya, Kec. Mangunjaya, Ciamis, Indonesia","Jl. Raya Mangun Jaya No.23, RT.2/RW.2, Mangunjaya, Kec. Tambun Sel., Kabupaten Bekasi, Jawa Barat 17510, Indonesia",-6.2523411,107.0585458
15,P3207100101,BANJARSARI,"Jl. Raya Banjarsari No. 112 Rt. 01 Rw 01 Ds. Banjarsari, Kec.Banjarsari",Ciamis,1.0,1,"Jl. Raya Banjarsari No. 112 Rt. 01 Rw 01 Ds. Banjarsari, Kec.Banjarsari, Ciamis, Indonesia","Jl. Raya Banjarsari No.112, Banjarsari, Kacamatan Banjarsari, Kabupaten Ciamis, Jawa Barat 46383, Indonesia",-7.4888007,108.6159947
16,P3207100202,CIULU,"Jl. Raya Pangandaran No. 85 Ds. Ciulu, Kec. Banjarsari",Ciamis,,2,"Jl. Raya Pangandaran No. 85 Ds. Ciulu, Kec. Banjarsari, Ciamis, Indonesia","Jl. Raya Banjar - Pangandaran No.85, Kedungwuluh, Kec. Padaherang, Kab. Pangandaran, Jawa Barat 46384, Indonesia",-7.526239800000001,108.6806956
17,P3207100203,CIGAYAM,"Dusun Sidamulya Ds. Cigayam, Kec. Banjarsari",Ciamis,,2,"Dusun Sidamulya Ds. Cigayam, Kec. Banjarsari, Ciamis, Indonesia","Cigayam, Banjarsari, Ciamis Regency, West Java, Indonesia",-7.4936664,108.5522531
18,P3207110101,LAKBOK,"Jl. Raya Lakbok No. 607 Rt. 08 Rw. 02 Ds. Sukanagara, Kec. Lakbok",Ciamis,1.0,1,"Jl. Raya Lakbok No. 607 Rt. 08 Rw. 02 Ds. Sukanagara, Kec. Lakbok, Ciamis, Indonesia","Jl. Raya Lakbok, Baregbeg, Kec. Lakbok, Kabupaten Ciamis, Jawa Barat 46385, Indonesia",-7.3969871,108.6792847
19,P3207110202,SIDAHARJA,"Jl. Bendung Manganti Rt. 16 Rw 03 Ds Sidaharja, Kec. Lakbok",Ciamis,,2,"Jl. Bendung Manganti Rt. 16 Rw 03 Ds Sidaharja, Kec. Lakbok, Ciamis, Indonesia","Jl. Bendung Manganti, Sidaharja, Kec. Lakbok, Kabupaten Ciamis, Jawa Barat, Indonesia",-7.4229904,108.698586
20,P3207111201,CIAWITALI,"Jl. Pramuka No.142  Rt 09  Rw 03 Ds. Prwd Ciawitali, Kec. Purwadadi",Ciamis,,2,"Jl. Pramuka No.142  Rt 09  Rw 03 Ds. Prwd Ciawitali, Kec. Purwadadi, Ciamis, Indonesia","Purwadadi, Ciamis Regency, West Java, Indonesia",-7.4489346,108.655094
21,P3207120201,PAMARICAN,"Jl. Raya Pamarican No. 5 Rt 25/06 Ds. Neglasari, Kec. Pamarican",Ciamis,,2,"Jl. Raya Pamarican No. 5 Rt 25/06 Ds. Neglasari, Kec. Pamarican, Ciamis, Indonesia","Jl. Raya Pamarican No.5 06, Neglasari, Kec. Pamarican, Kabupaten Ciamis, Jawa Barat 46382, Indonesia",-7.4407853,108.5209075
22,P3207120202,KERTAHAYU,"Jl. Raya Pangandaran No.532 Rt03 Rw 02 Ds.Kertahayu,Kec.Pamarican",Ciamis,,2,"Jl. Raya Pangandaran No.532 Rt03 Rw 02 Ds.Kertahayu,Kec.Pamarican, Ciamis, Indonesia","Jl. Raya Banjar - Pangandaran No.532, Sindangrasa, Kacamatan Banjarsari, Kabupaten Ciamis, Jawa Barat 46383, Indonesia",-7.472478499999998,108.5989579
23,P3207130201,CIDOLOG,"Jl. Cidolog-Cineam Rt 02 Rw 01 Ds. Janggala, Kec. Cidolog",Ciamis,1.0,2,"Jl. Cidolog-Cineam Rt 02 Rw 01 Ds. Janggala, Kec. Cidolog, Ciamis, Indonesia","Jl. Cineam - Cidolog No.2, Janggala, Kec. Cidolog, Kabupaten Ciamis, Jawa Barat 46352, Indonesia",-7.395856500000001,108.426179
24,P3207140101,CIMARAGAS,"Jl. Raya Manonjaya  No. 26 Rt 01 Rw 01 Ds. Beber, Kec. Cimaragas",Ciamis,1.0,1,"Jl. Raya Manonjaya  No. 26 Rt 01 Rw 01 Ds. Beber, Kec. Cimaragas, Ciamis, Indonesia","Jl. Raya Manonjaya, Pasirbatang, Kec. Manonjaya, Kabupaten Tasikmalaya, Jawa Barat 46197, Indonesia",-7.3627273,108.3639264
25,P3207150201,CIJEUNGJING,"Jl. Raya Ciamis Banjar No.625 Rt 04/02 Ds.Bjgmengger, Kec.Cijeungjing",Ciamis,1.0,2,"Jl. Raya Ciamis Banjar No.625 Rt 04/02 Ds.Bjgmengger, Kec.Cijeungjing, Ciamis, Indonesia","Jl. Ciamis - Banjar No.625, Bojongmengger, Kec. Cijeungjing, Kabupaten Ciamis, Jawa Barat 46271, Indonesia",-7.346704300000001,108.4316061
26,P3207150202,HANDAPHERANG,"Jl. H. Hasan No. 11 Rt 08 Rw 03 Ds. Handapherang, Kec. Cijeungjing",Ciamis,,2,"Jl. H. Hasan No. 11 Rt 08 Rw 03 Ds. Handapherang, Kec. Cijeungjing, Ciamis, Indonesia","Jl. H. Hasan No.11, Handapherang, Kec. Cijeungjing, Kabupaten Ciamis, Jawa Barat 46271, Indonesia",-7.3427921,108.3781398
